Store_Name,Longitude,Latitude,Address,Address Line #2,City,State,Zip5,Zip4,County,
"MARSH SUPERMARKET 104",-86.264023,39.91082,"5830 W 86th St","","Indianapolis","IN","46278","1408","MARION" 
"Grillmaster Choice Meats Inc",-85.069016,41.074562,"5436 Old Maumee Rd","","Ft Wayne","IN","46803","","ALLEN" 
"POOLE FOODS",-85.822083,40.790771,"162 Smith St","","Wabash","IN","46992","3322","WABASH" 
"DOLLAR GENERAL 1988",-86.120667,39.707462,"4060 S Keystone Ave","","Indianapolis","IN","46227","8621","MARION" 
"DOLLAR GENERAL 3389",-86.383362,39.838459,"830 E Main St","","Brownsburg","IN","46112","1426","HENDRICKS" 
"DOLLAR GENERAL 3616",-86.236794,39.714916,"3473 Kentucky Ave","","Indianapolis","IN","46221","2308","MARION" 
"DOLLAR GENERAL 4361",-86.149025,39.713009,"3644 S East St","","Indianapolis","IN","46227","1239","MARION" 
"Dollar General 4362",-86.158417,39.632473,"1140 N SR 135","","Greenwood","IN","46142","9414","JOHNSON" 
"DOLLAR GENERAL 4364",-86.108849,39.61097,"358 S Madison Ave","","Greenwood","IN","46142","3125","JOHNSON" 
"DOLLAR GENERAL 1620",-87.492271,37.947762,"4829 Pollack Ave","","Evansville","IN","47715","5750","VANDERBURGH" 
"DOLLAR GENERAL 7303",-86.354897,39.62598,"650 S State Road 67","","Mooresville","IN","46158","2796","MORGAN" 
"DOLLAR GENERAL 7403",-86.372551,39.711746,"2205 E Main St","","Plainfield","IN","46168","1817","HENDRICKS" 
"DOLLAR GENERAL 2693",-87.577232,38.018021,"925 North Park Dr","","Evansville","IN","47710","3629","VANDERBURGH" 
"DOLLAR GENERAL 2773",-84.927109,39.824684,"1807 National Rd W","","Richmond","IN","47374","3849","WAYNE" 
"DOLLAR GENERAL 9114",-86.497162,39.763721,"180 Old Farm Rd","","Danville","IN","46122","1433","HENDRICKS" 
"DOLLAR GENERAL 1842",-86.026779,40.046993,"567 Westfield Rd","","Noblesville","IN","46060","1321","HAMILTON" 
"DOLLAR GENERAL 6631",-86.264763,39.797699,"2310 Cunningham Rd","","Indianapolis","IN","46224","3702","MARION" 
"DOLLAR GENERAL 7817",-86.861015,38.2244,"1801 SR 162","","Ferdinand","IN","47532","9124","DUBOIS" 
"DOLLAR GENERAL 2910",-84.840652,39.831097,"4481 National Rd E","","Richmond","IN","47374","3729","WAYNE" 
"DOLLAR GENERAL 9482",-87.306396,39.392418,"7205 S State Road 46","","Terre Haute","IN","47802","9316","VIGO" 
"Summit Market",-85.130707,41.037052,"5008 Decatur Rd","","Fort Wayne","IN","46806","3009","ALLEN" 
"GOSPORT VALUE MARKET",-86.663826,39.349216,"118 E MAIN ST","","GOSPORT","IN","47433","","OWEN" 
"DOLLAR GENERAL 1134",-85.803581,38.740623,"170 S Highway 31","","Austin","IN","47102","1326","SCOTT" 
"DOLLAR GENERAL 1548",-85.501091,40.171371,"9830 W Smith St","","Yorktown","IN","47396","1101","DELAWARE" 
"DOLLAR GENERAL 2763",-87.555519,37.999374,"607 E Diamond Ave","","Evansville","IN","47711","3717","VANDERBURGH" 
"DOLLAR GENERAL 3083",-85.01358,41.635178,"1200 W Maumee St","","Angola","IN","46703","1347","STEUBEN" 
"DOLLAR GENERAL 3313",-85.794769,41.559967,"2010 Lincolnway E","","Goshen","IN","46526","6413","ELKHART" 
"DOLLAR GENERAL 3723",-85.871262,41.24773,"1007 Warren St","","Warsaw","IN","46580","2534","KOSCIUSKO" 
"Dollar General 4509",-86.938194,38.42857,"4117 N Mannheim Rd","","Jasper","IN","47546","9625","DUBOIS" 
"DOLLAR GENERAL 6626",-87.487907,37.995098,"5033 Theatre Dr","","Evansville","IN","47715","8537","VANDERBURGH" 
"DOLLAR GENERAL 7258",-85.819763,40.779911,"1850 S Wabash St","","Wabash","IN","46992","4120","WABASH" 
"DOLLAR GENERAL 7393",-85.934998,41.646572,"3517 S Main St","","Elkhart","IN","46517","3123","ELKHART" 
"Springville Petroleum",-86.856621,41.733143,"2909 E US Highway 12","","Michigan City","IN","46360","2181","LA PORTE" 
"DOLLAR GENERAL 7654",-86.026505,41.173477,"9554 West SR 25","","MENTONE","IN","46539","0513","KOSCIUSKO" 
"DOLLAR GENERAL 9288",-85.854309,40.069874,"620 W Pendleton Ave","","Lapel","IN","46051","9668","MADISON" 
"Dollar General 9721",-87.599945,38.007172,"3020 N Saint Joseph Ave","","Evansville","IN","47720","1346","VANDERBURGH" 
"CVS 6463",-86.216354,41.694469,"2210 Edison Rd","","South Bend","IN","46615","3514","ST JOSEPH" 
"CARNICERIA MI MEXICO",-86.027084,39.834049,"4240 N Franklin Rd","","Indianapolis","IN","46226","4193","MARION" 
"DOLLAR GENERAL 4492",-85.986549,41.442631,"1307 E Market St","","Nappanee","IN","46550","2301","ELKHART" 
"MARSH 101",-85.731422,40.001526,"3015 W US Highway 36","","Pendleton","IN","46064","9280","MADISON" 
"Ricker's Petro Mart 3",-85.791718,40.210461,"ST. RD.128 & 11TH ST.","","Frankton","IN","46044","","MADISON" 
"WADDELL'S IGA",-86.27388,40.421329,"125 E Main St","","Russiaville","IN","46979","9121","HOWARD" 
"CVS 6687",-86.840141,39.646198,"1010 Indianapolis Rd","","Greencastle","IN","46135","1456","PUTNAM" 
"CARNICERIA SAN JOSE",-85.834518,41.588329,"214 N Main St","","Goshen","IN","46526","3209","ELKHART" 
"PAPA MURPHY'S TAKE-N-BAKE PIZZA",-85.75988,38.328747,"1305 Veterans Pkwy","","Clarksville","IN","47129","7750","CLARK" 
"DOLLAR GENERAL 6954",-86.865395,39.648067,"507 N Jackson St","","Greencastle","IN","46135","1032","PUTNAM" 
"THE BUTCHERS BLOCK",-86.498642,39.164955,"115 S State Road 46","Suite E","Bloomington","IN","47408","4435","MONROE" 
"TIENDA MORELOS 5",-86.260811,39.765339,"5 Beachway Dr","","Indianapolis","IN","46224","8501","MARION" 
"OLD TYME DELI & MEAT SHOP INC.",-87.574989,37.980373,"307 N 1st Ave","","Evansville","IN","47710","1218","VANDERBURGH" 
"TIENDA MORELOS 6",-86.216301,39.898216,"7940 Michigan Rd","Ste 12","Indianapolis","IN","46268","2395","MARION" 
"DOLLAR GENERAL 6718",-84.922157,39.632706,"479 E South St","","Liberty","IN","47353","","UNION" 
"Walgreens 07736",-86.916641,40.042778,"110 W Market St","","Crawfordsville","IN","47933","1722","MONTGOMERY" 
"KROGER   J-965",-85.99556,39.89854,"9835 Fall Creek Rd","","Indianapolis","IN","46256","4802","MARION" 
"SPEEDWAY 6675",-87.168839,41.575989,"6370 Central Ave","","Portage","IN","46368","3802","PORTER" 
"CVS 6610",-86.017006,39.708664,"8405 Southeastern Ave","","Indianapolis","IN","46239","1348","MARION" 
"Crown Point Marathon",-87.356285,41.415226,"702 E Joliet St","","Crown Point","IN","46307","4122","LAKE" 
"R&M FOOD MARKET",-86.868675,40.606682,"247 N Prairie St","","Brookston","IN","47923","8081","WHITE" 
"CVS 6626",-85.610893,40.487919,"301 E Main St","","Gas City","IN","46933","1459","GRANT" 
"Walgreens 01444",-86.470779,40.056656,"1130 N Lebanon St","","Lebanon","IN","46052","1759","BOONE" 
"Carniceria La Fiesta",-86.364418,40.755501,"524 North St","","Logansport","IN","46947","2734","CASS" 
"La Fiesta Market",-86.85836,40.42321,"608 Sagamore Pkwy N","","Lafayette","IN","47904","2717","TIPPECANOE" 
"Kroger J-983",-86.108772,40.041092,"17447 Carey Rd","","Westfield","IN","46074","9439","HAMILTON" 
"DOLLAR GENERAL 1141",-85.842903,41.587791,"207 Chicago Ave","","Goshen","IN","46526","2311","ELKHART" 
"DOLLAR GENERAL 10016",-85.115768,39.048443,"7878 E US Highway 50","","Dillsboro","IN","47018","8732","DEARBORN" 
"DOLLAR GENERAL 6874",-86.107491,39.694031,"3209 E Thompson Rd","","Indianapolis","IN","46227","6682","MARION" 
"DOLLAR GENERAL 5898",-86.527367,38.90065,"203 Hoosier Ave","","Oolitic","IN","47451","9636","LAWRENCE" 
"Meijer Inc 220",-85.795715,38.35006,"4222 Charlestown Rd","","New Albany","IN","47150","9567","FLOYD" 
"Davis Nursery and Country Market",-85.725182,38.300827,"1708 E 10th St","","Jeffersonville","IN","47130","6273","CLARK" 
"Walmart SUPERCENTER 5443",-86.082588,39.69865,"4650 S Emerson Ave","","Indianapolis","IN","46203","5932","MARION" 
"Walgreens 09279",-85.673714,40.537811,"2620 S Western Ave","","Marion","IN","46953","3556","GRANT" 
"Marsh Hometown Market 2",-85.910667,39.725483,"5802 W US 52","","New Palestine","IN","46163","9737","HANCOCK" 
"Walgreens 07788",-85.652763,40.112892,"320 S Scatterfield Rd","","Anderson","IN","46012","3601","MADISON" 
"Walgreens 07174",-85.769653,39.799351,"1195 N State St","","Greenfield","IN","46140","1207","HANCOCK" 
"PLAZA FABRICARE CORP",-86.307838,41.341,"203 E Garro St","","Plymouth","IN","46563","2109","MARSHALL" 
"A & A Quick Stop",-85.504478,40.891754,"1916 N Jefferson St","","Huntington","IN","46750","1351","HUNTINGTON" 
"ROSALES SUPER MKT 5",-86.28936,41.671982,"2812 W Western Ave","","South Bend","IN","46619","3130","ST JOSEPH" 
"GFS Marketplace MP112",-87.474052,37.990131,"1500 N Burkhardt Rd","","Evansville","IN","47715","2755","VANDERBURGH" 
"SARAH'S PHILIPPINES STORE",-87.397758,39.469025,"114 N 13th St","","Terre Haute","IN","47807","2716","VIGO" 
"Walgreens 09129",-85.996101,40.039398,"2380 Pleasant St","","Noblesville","IN","46060","3623","HAMILTON" 
"Circle K 2262",-87.574287,38.007179,"3105 FIRST AVE. N.","","EVANSVILLE","IN","47711","","VANDERBURGH" 
"Coliseum Quick Mart",-85.087425,41.063087,"2510 S Coliseum Blvd","","Fort Wayne","IN","46803","2942","ALLEN" 
"Kenny Dewig Meats",-87.743134,38.277889,"9208 W St Rd 165","","Owensville","IN","47665","","GIBSON" 
"THE JUNCTION",-87.399071,39.185795,"6959 N US Highway 41","","Shelburn","IN","47879","8224","SULLIVAN" 
"DOLLAR GENERAL 6814",-86.961937,40.457596,"2752 Klondike Rd","","West Lafayette","IN","47906","5205","TIPPECANOE" 
"SANTA CRUZ TIENDA Y CARNICERIA",-85.417877,41.644073,"110 N Detroit St","","Lagrange","IN","46761","1802","LAGRANGE" 
"DOLLAR GENERAL 3755",-85.3731,40.219093,"1410 E McGalliard Rd","","Muncie","IN","47303","2208","DELAWARE" 
"Clark's Eastside Market",-85.116119,39.639072,"1449 E 5th St","","Connersville","IN","47331","3309","FAYETTE" 
"GILEAD GENERAL STORE",-86.073135,40.946232,"13902 N State Road 19","","MacY","IN","46951","7868","MIAMI" 
"Fred's Store 2550",-87.347801,38.333931,"130 W Morton St","","Oakland City","IN","47660","1748","GIBSON" 
"Dollar General 6749",-86.781052,39.471943,"325 US Hwy 231","","Cloverdale","IN","46120","","PUTNAM" 
"Casey's General Store 2582",-85.968002,39.355453,"210 W Center Cross St","","Edinburgh","IN","46124","1024","JOHNSON" 
"New Market 776",-85.593925,40.487759,"1025 E Main St","","Gas City","IN","46933","1622","GRANT" 
"New Market 773",-85.673775,40.546619,"1555 S Western Ave","","Marion","IN","46953","1543","GRANT" 
"LANCES MARKET 560",-85.697906,41.323692,"360 S Main St","","North Webster","IN","46555","9206","KOSCIUSKO" 
"LANCES MARKET 561",-85.746773,41.415138,"726 S Huntington St","","Syracuse","IN","46567","1809","KOSCIUSKO" 
"LANCES MARKET 503",-85.787483,41.000317,"1204 St Rd 114 W","","N Manchester","IN","46962","1946","WABASH" 
"Casey's General Store 2390",-87.410629,39.658836,"1211 Western Ave","","Clinton","IN","47842","1063","VERMILLION" 
"Grand Food Junction",-85.088089,41.089619,"1415 N Coliseum Blvd","","Fort Wayne","IN","46805","5527","ALLEN" 
"Circle K 113",-86.126297,40.449673,"3026 S County Rd","","KOKOMO","IN","46902","","HOWARD" 
"Papa Murphy's Pizza",-86.374855,39.607082,"439 S Indiana St","","Mooresville","IN","46158","1711","MORGAN" 
"SAV-A-STEP FOOD MART #41",-86.110016,38.407867,"14195 Greene St NE","","Palmyra","IN","47164","8110","HARRISON" 
"Darlage Custom Meats",-85.925446,38.941082,"5974 Schleter Rd","","Seymour","IN","47274","5503","JACKSON" 
"DOLLAR GENERAL 10030",-87.025917,41.318893,"175 N Main St","Ste 20","Kouts","IN","46347","9205","PORTER" 
"DOLLAR GENERAL 3630",-87.784439,38.169827,"39 W Main St","","Poseyville","IN","47633","","POSEY" 
"7-ELEVEN",-86.059303,41.685101,"30955 US Highway 20","","Osceola","IN","46561","9608","ST JOSEPH" 
"LASSUS HANDY DANDY 28",-85.016678,41.070435,"633 Broadway St","","New Haven","IN","46774","1472","ALLEN" 
"BP Quickpik",-87.370438,39.472324,"3230 Wabash Ave","","Terre Haute","IN","47803","1520","VIGO" 
"Michigan & Dunmoyer Market",-86.249542,41.64415,"2904 S Michigan St","","South Bend","IN","46614","1034","ST JOSEPH" 
"Circle K 2255",-87.398819,39.491684,"1280 Lafayette Ave","","Terre Haute","IN","47804","3016","VIGO" 
"Circle K 2269",-86.901466,40.033604,"801 S Washington St","","Crawfordsville","IN","47933","3546","MONTGOMERY" 
"HUCK'S 304",-86.478043,38.556217,"812 W Main St","","Paoli","IN","47454","1041","ORANGE" 
"HUCK'S 280",-86.452805,38.659882,"363 S Maple St","","Orleans","IN","47452","1725","ORANGE" 
"HUCK'S 362",-87.902245,37.930519,"631 W 4th St","","Mount Vernon","IN","47620","1617","POSEY" 
"Walgreens 07906",-85.823982,41.237953,"2400 E Center St","","Warsaw","IN","46580","3817","KOSCIUSKO" 
"Walgreens 07907",-85.491585,41.167538,"535 N Line St","","Columbia City","IN","46725","1229","WHITLEY" 
"Target Store 1063",-86.127617,40.008717,"15160 N Meridian St","","Carmel","IN","46032","1399","HAMILTON" 
"Target Store 773",-86.356049,39.718185,"2673 E Main St","","Plainfield","IN","46168","2710","HENDRICKS" 
"Target Store 870",-87.3032,41.470917,"2661 E 81st Ave","","Merrillville","IN","46410","5898","LAKE" 
"Target Store 1214",-85.987495,39.77512,"10202 E Washington St","","Indianapolis","IN","46229","2670","MARION" 
"Target Store 1481",-87.471863,37.976513,"6625 E Lloyd Expy","","Evansville","IN","47715","2757","VANDERBURGH" 
"DOLLAR GENERAL 10032",-85.873405,40.581085,"404 N Jefferson St","","Converse","IN","46919","2127","MIAMI" 
"7-Eleven 32572",-85.96479,41.651413,"25960 County Road 20","","Elkhart","IN","46517","2309","ELKHART" 
"Walgreens 09318",-86.719353,41.612255,"525 E Lincolnway","","La Porte","IN","46350","3833","LA PORTE" 
"Walgreens 09100",-86.311333,41.357952,"2014 N Michigan St","","Plymouth","IN","46563","1048","MARSHALL" 
"CONVENIENT FOOD MART",-85.990807,39.811272,"2935 N Mitthoeffer Rd","","Indianapolis","IN","46229","1341","MARION" 
"DOLLAR GENERAL 9856*",-85.842125,40.259892,"1900 S Anderson St","","Elwood","IN","46036","3361","MADISON" 
"FAMILY EXPRESS 45",-86.879005,40.863277,"429 N Market St","","Monon","IN","47959","","WHITE" 
"SARAGA INTERNATIONAL GROCERY",-86.228355,39.819115,"3605 Commercial Dr","","Indianapolis","IN","46222","1681","MARION" 
"7-ELEVEN 32572",-86.24398,41.679188,"501 E Lasalle Ave","","South Bend","IN","46617","2725","ST JOSEPH" 
"DOLLAR GENERAL 7394",-85.949455,41.702648,"1800 E Bristol St","","Elkhart","IN","46514","3965","ELKHART" 
"SHERMAN & LINS DISCOUNT GROCERY",-85.831291,41.234253,"1900 E Winona Ave","","Warsaw","IN","46580","4638","KOSCIUSKO" 
"Target Store 2048",-87.469955,41.440079,"9885 Wicker Ave","","Saint John","IN","46373","9413","LAKE" 
"Target Store 2068",-85.764404,38.326244,"1125 Veterans Pkwy","","Clarksville","IN","47129","2371","CLARK" 
"Mon Asian Grocery",-85.137756,41.057404,"3028 S Calhoun St","","Fort Wayne","IN","46807","1408","ALLEN" 
"RABERS KOUNTRY STORE",-86.01899,40.977581,"14493 N State Road 19","","MacY","IN","46951","8121","MIAMI" 
"Halal Market",-86.259209,39.750366,"5768 W Morris St","","Indianapolis","IN","46241","2066","MARION" 
"Fishburn's Farm Market",-85.280167,40.874882,"9110 N 300 W-90","","Markle","IN","46770","9744","WELLS" 
"VIDEO Y DISCOTECA EL CHARRO",-86.901161,40.040527,"113 E Pike St","","Crawfordsville","IN","47933","2513","MONTGOMERY" 
"Walgreens 06691",-87.47123,41.556084,"2401 Ridge Rd","","Highland","IN","46322","1565","LAKE" 
"Walgreens 09488",-85.479866,39.35788,"2215 N State Road 3","","Greensburg","IN","47240","","DECATUR" 
"Walgreens 09711",-87.386086,39.507973,"2040 Lafayette Ave","","Terre Haute","IN","47805","2920","VIGO" 
"PAPA MURPHYS PIZZA",-86.376625,39.710587,"1810 E Main St","","Plainfield","IN","46168","1850","HENDRICKS" 
"JAY-C PLUS 57",-85.672516,38.452126,"9501 Highway 403","","Charlestown","IN","47111","8939","CLARK" 
"HACIENDA SAN MARCOS",-86.732719,41.60088,"1105 W State Road 2","","La Porte","IN","46350","5466","LA PORTE" 
"Casey's General Store 2579",-85.672081,40.258358,"302 E 1st St","","Alexandria","IN","46001","2406","MADISON" 
"Casey's General Store 2580",-86.013153,40.176117,"26602 State Road 19","","Arcadia","IN","46030","9725","HAMILTON" 
"CVS 6603",-86.085709,39.855042,"5005 E 56th St","","Indianapolis","IN","46226","1401","MARION" 
"CVS 6522",-85.219299,41.057793,"2811 Getz Rd","","Fort Wayne","IN","46804","3064","ALLEN" 
"CVS 6510",-85.16407,41.146179,"7330 Lima Rd","","Fort Wayne","IN","46818","1130","ALLEN" 
"RK Incorporated dba 15th Ave Super Duper",-87.402832,41.587997,"5390 W 15th Ave","","Gary","IN","46406","2316","LAKE" 
"CHICAGO AVENUE SUPER DUPER",-87.489265,41.629128,"1312 W Chicago Ave","","East Chicago","IN","46312","3317","LAKE" 
"PATEL BROTHERS",-86.242027,39.830952,"4150 Lafayette Rd","Ste F","Indianapolis","IN","46254","2491","MARION" 
"SEIFERT DRUG",-85.97274,41.685989,"230 S Main St","","Elkhart","IN","46516","3120","ELKHART" 
"7-ELEVEN 30167",-87.427628,41.53698,"845 N Broad St","","Griffith","IN","46319","2230","LAKE" 
"ALDI  3",-85.793877,41.559235,"2036 Lincolnway E","","Goshen","IN","46526","6413","ELKHART" 
"MARTIN'S SUPER MARKET 24",-85.856949,41.595253,"1527 Bashor Rd","","Goshen","IN","46528","1902","ELKHART" 
"DOLLAR TREE 3407",-85.981598,39.858158,"10555 Pendleton Pike","Ste. B-1","Indianapolis","IN","46236","2834","MARION" 
"DEALS 3412",-85.652672,40.071682,"4300 S Scatterfield Rd","","Anderson","IN","46013","2631","MADISON" 
"Dollar Tree 3434",-85.99662,40.032684,"16745 Clover Rd","","Noblesville","IN","46060","3646","HAMILTON" 
"Target Store 1848",-86.137512,39.912609,"1300 E 86th St","Ste 35","Indianapolis","IN","46240","1990","MARION" 
"Target Store 1878",-86.493958,39.164158,"2966 E 3rd St","","Bloomington","IN","47401","5424","MONROE" 
"Target Store 1902",-86.228661,41.629387,"1400 E Ireland Rd","","South Bend","IN","46614","3452","ST JOSEPH" 
"Target Store 1911",-85.885109,39.217911,"1865 N National Rd","","Columbus","IN","47201","5194","BARTHOLOMEW" 
"Target Store 1913",-87.508926,41.568336,"8005 Calumet Ave","","Munster","IN","46321","1217","LAKE" 
"Walmart Supecenter 3435",-86.082695,39.634399,"1133 N Emerson Ave","","Greenwood","IN","46143","6275","JOHNSON" 
"Walmart SUPERCENTER 3747",-85.371147,40.160175,"1501 E 29th St","","Muncie","IN","47302","5890","DELAWARE" 
"DOLLAR GENERAL 6072",-84.87249,41.426311,"106 Baldwin St","","Butler","IN","46721","","DE KALB" 
"DOLLAR GENERAL 10387",-86.127197,39.665123,"6982 Madison Ave","","Indianapolis","IN","46227","","MARION" 
"Dollar General 6923",-86.0224,40.197563,"27069 Cicero Ave","","Atlanta","IN","46031","","HAMILTON" 
"Target Store 1933",-85.063782,41.120327,"6119 Stellhorn Rd","","Fort Wayne","IN","46815","5357","ALLEN" 
"STRACK & VAN TIL 8795",-87.469917,41.440533,"9825 Wicker Ave","","Saint John","IN","46373","9413","LAKE" 
"DPR OIL",-85.115166,41.08989,"1501 N Anthony Blvd","","Fort Wayne","IN","46805","5101","ALLEN" 
"LOS TRES HERMANOS SUPERMARKET CORP",-86.496445,40.278915,"1413 E Wabash St","","Frankfort","IN","46041","2742","CLINTON" 
"Circle K 52",-85.912796,38.288994,"1038 W Knable Rd","","Georgetown","IN","47122","9181","FLOYD" 
"Circle K 66",-85.96785,39.354317,"200 W Main Cross St","","Edinburgh","IN","46124","1347","JOHNSON" 
"Wilbur Corner Shop",-86.486053,39.515995,"3235 State Road 142","","Martinsville","IN","46151","9592","MORGAN" 
"GRABILL SAVE-A-LOT",-84.973351,41.212887,"13325 State St","","Grabill","IN","46741","2012","ALLEN" 
"DOLLAR GENERAL 7453",-85.134705,41.33223,"1364 S Randolph St","","Garrett","IN","46738","1971","DE KALB" 
"DOLLAR GENERAL 10319",-87.405586,38.959183,"235 S Alexander St","","Carlisle","IN","47838","8331","SULLIVAN" 
"Westport Locker City Meat Market",-85.389793,38.770939,"3146 English Sta","","Madison","IN","47250","2397","JEFFERSON" 
"Circle K 126",-85.75872,38.295868,"419 Eastern Blvd","","Clarksville","IN","47129","2837","CLARK" 
"FAMILY EXPRESS 25",-86.328011,41.342556,"1628 W Jefferson St","","Plymouth","IN","46563","1679","MARSHALL" 
"FAMILY EXPRESS 34",-87.273804,41.144474,"11880 W State Road 10","","Demotte","IN","46310","9755","JASPER" 
"FAMILY EXPRESS 35",-87.215836,40.940708,"8805 W State Road 114","","Rensselaer","IN","47978","8812","JASPER" 
"FAMILY EXPRESS 36",-87.156067,40.927631,"754 S College Ave","","Rensselaer","IN","47978","3083","JASPER" 
"FAMILY EXPRESS 37",-87.153656,40.766151,"505 N Maine St","","Remington","IN","47977","8777","JASPER" 
"FAMILY EXPRESS 38",-86.879829,40.446743,"2610 N 9th Street Rd","","Lafayette","IN","47904","1052","TIPPECANOE" 
"FAMILY EXPRESS 39",-86.835487,40.387283,"3983 State Road 38 E","","Lafayette","IN","47905","9464","TIPPECANOE" 
"FAMILY EXPRESS 40",-87.150223,41.187477,"5499 W State Road 10","","Wheatfield","IN","46392","9600","JASPER" 
"FAMILY EXPRESS 42",-87.119553,41.550175,"298 W US Highway 6","","Valparaiso","IN","46385","7911","PORTER" 
"FAMILY EXPRESS 43",-86.840874,40.462292,"3015 State Road 25 N","","Lafayette","IN","47905","8825","TIPPECANOE" 
"FAMILY EXPRESS 50",-86.603348,41.064468,"630 N US Highway 35","","Winamac","IN","46996","8198","PULASKI" 
"FAMILY EXPRESS 52",-87.172852,41.607361,"6250 Ameriplex Dr","","Portage","IN","46368","1391","PORTER" 
"FAMILY EXPRESS 41",-86.835915,40.376781,"3350 US Highway 52 S","","Lafayette","IN","47905","7701","TIPPECANOE" 
"COATESVILLE FOOD STORE",-86.669792,39.68726,"5047 Milton St","","Coatesville","IN","46121","9706","PUTNAM" 
"MARSH SUPERMARKET  83",-86.281769,39.823223,"6965 W 38th St","","Indianapolis","IN","46254","3905","MARION" 
"MARSH SUPERMARKET  03",-86.537827,39.186951,"1825 N Kinser Pike","","Bloomington","IN","47404","1914","MONROE" 
"STRACK & VAN TIL 8797",-87.33532,41.421021,"10851 Broadway","","Crown Point","IN","46307","7303","LAKE" 
"7-ELEVEN 32582",-85.975334,41.690849,"429 N Main St","","Elkhart","IN","46516","3042","ELKHART" 
"WALGREENS 09710",-85.896423,38.314075,"200 Lafollette Sta S","","Floyds Knobs","IN","47119","9776","FLOYD" 
"Circle K 14",-85.638359,39.013519,"1660 N State St","","North Vernon","IN","47265","7479","JENNINGS" 
"Circle K 68",-85.635818,39.011379,"790 N State St","","North Vernon","IN","47265","1004","JENNINGS" 
"KROGER J-980",-86.066765,40.001122,"14800 Hazel Dell Xing","","Noblesville","IN","46062","6982","HAMILTON" 
"Circle K 6",-85.880745,38.958206,"601 E Tipton St","","Seymour","IN","47274","3519","JACKSON" 
"Circle K 17",-86.043785,38.876518,"107 W Commerce St","","Brownstown","IN","47220","1903","JACKSON" 
"Circle K 101",-85.848991,38.958218,"2119 E Tipton St","","Seymour","IN","47274","3569","JACKSON" 
"7-ELEVEN",-86.194946,41.709373,"910 W Douglas Rd","","Mishawaka","IN","46545","1434","ST JOSEPH" 
"CVS Pharmacy 8646",-86.24987,41.750549,"51467 Indiana State Route 933","","South Bend","IN","46637","1617","ST JOSEPH" 
"CVS Pharmacy 8631",-86.308693,41.671898,"4403 W Western Ave","","South Bend","IN","46619","2640","ST JOSEPH" 
"CVS Pharmacy 8640",-86.132118,39.912636,"1616 E 86th St","","Indianapolis","IN","46240","2359","MARION" 
"CVS Pharmacy 8639",-87.407654,39.433823,"670 Margaret Ave","","Terre Haute","IN","47802","3950","VIGO" 
"CVS Pharmacy 8642",-86.21936,41.698601,"2051 S Bend Ave","","South Bend","IN","46637","5686","ST JOSEPH" 
"CVS Pharmacy 8518",-87.436295,41.537418,"3835 45th St","","Highland","IN","46322","3009","LAKE" 
"CVS Pharmacy 8677",-86.26815,41.692921,"1333 Portage Ave","","South Bend","IN","46616","1509","ST JOSEPH" 
"CVS 8650",-87.379776,39.470791,"2440 Wabash Ave","","Terre Haute","IN","47807","3310","VIGO" 
"CVS Pharmacy 8690",-86.132492,39.680668,"5920 Madison Ave","","Indianapolis","IN","46227","4775","MARION" 
"CVS Pharmacy 8637",-86.27018,39.81546,"3350 N High School Rd","","Indianapolis","IN","46224","","MARION" 
"CVS 8665",-86.582123,39.164688,"3910 W 3rd St","","Bloomington","IN","47404","4867","MONROE" 
"DC MEATS, INC",-86.090729,41.663322,"1711 Lincolnway W","","Osceola","IN","46561","1949","ST JOSEPH" 
"Circle K 15",-86.246902,39.205894,"211 S Van Buren St","","Nashville","IN","47448","7038","BROWN" 
"Circle K 5",-86.171631,39.188862,"2356 E State Road 46","","Nashville","IN","47448","9249","BROWN" 
"Circle K 64",-85.479553,39.336941,"101 N Lincoln St","","Greensburg","IN","47240","2102","DECATUR" 
"MARATHON GAS AND FOOD",-87.406998,39.448231,"1701 S 7th St","","Terre Haute","IN","47802","2315","VIGO" 
"Circle K 53",-85.841484,39.1675,"3461 S US Highway 31","","Columbus","IN","47201","9687","BARTHOLOMEW" 
"Circle K 60",-85.904167,39.2155,"1644 Central Ave","","Columbus","IN","47201","5307","BARTHOLOMEW" 
"CARNICERIA GUANAJUATO",-86.045784,39.812744,"3110 N Shadeland Ave","","Indianapolis","IN","46226","6295","MARION" 
"Circle K 61",-85.894638,39.200783,"262 N Gladstone Ave","","Columbus","IN","47201","7045","BARTHOLOMEW" 
"Circle K 63",-85.930588,39.188148,"760 Jonesville Rd","","Columbus","IN","47201","","BARTHOLOMEW" 
"Circle K 10",-85.875504,39.223492,"4005 25th St","","Columbus","IN","47203","3162","BARTHOLOMEW" 
"Grounded Organic & Natural Foods",-86.945473,38.376339,"323 US 231 S","","Jasper","IN","47546","","DUBOIS" 
"MR FRESH",-86.192039,41.672958,"725 W Jefferson Blvd","","Mishawaka","IN","46545","5843","ST JOSEPH" 
"VIRK'S BP AMOCO",-86.898361,41.710396,"1204 Franklin St","","Michigan City","IN","46360","3704","LA PORTE" 
"A & H Oil Co LLC",-85.14325,41.031528,"5805 Fairfield Ave","","Fort Wayne","IN","46807","3436","ALLEN" 
"PAPA MURPHY'S PIZZA",-86.531303,39.121155,"4017 S Old State Road 37","","Bloomington","IN","47401","7482","MONROE" 
"DOLLAR GENERAL 2157",-85.277496,40.554955,"122 S Main St","","Montpelier","IN","47359","1322","BLACKFORD" 
"The Sunspot Natural Market",-86.125389,40.442627,"3717 S Reed Rd","","Kokomo","IN","46902","","HOWARD" 
"WALGREENS 07472",-85.165771,40.771053,"1975 N Main St","","Bluffton","IN","46714","1182","WELLS" 
"BRAZIL BP AMOCO",-87.130356,39.522385,"210 W National Ave","","Brazil","IN","47834","2541","CLAY" 
"THORNTON OIL 156",-85.830772,38.29631,"1401 State Road 111","","New Albany","IN","47150","6033","FLOYD" 
"Walmart SUPERCENTER 4235",-87.333092,39.437283,"2399 S State Road 46","","Terre Haute","IN","47803","9306","VIGO" 
"SANDER PROCESSING",-86.780151,38.384777,"6614 E State Road 164","","Celestine","IN","47521","5401","DUBOIS" 
"DOLLAR GENERAL 10662",-86.856316,41.687466,"2052 E US Highway 20","","Michigan City","IN","46360","7593","LA PORTE" 
"PAPA MURPHY'S PIZZA",-86.064354,39.492756,"1141 N Morton St","","Franklin","IN","46131","1257","JOHNSON" 
"DOLLAR GENERAL 10346",-87.364868,41.44976,"9280 Taft St","","Merrillville","IN","46410","","LAKE" 
"LAKE STATION PETROLEUM INC",-87.27639,41.57,"595 Central Ave","","Lake Station","IN","46405","1410","LAKE" 
"Memorial BP",-85.399345,40.178394,"1300 W Memorial Dr","","Muncie","IN","47302","2252","DELAWARE" 
"SPRING STREET MARATHON",-85.356049,39.933083,"2306 Spring St","","New Castle","IN","47362","3836","HENRY" 
"Walmart SUPERCENTER 4216",-85.945641,39.197861,"2025 Merchant Mile","","Columbus","IN","47201","1572","BARTHOLOMEW" 
"Walmart Supercenter 4231",-85.118515,41.015644,"7502 Southtown Crossing Blvd","","Fort Wayne","IN","46816","2515","ALLEN" 
"DOLLAR GENERAL 10598",-87.111084,39.289925,"6635 S Old State Road 59","","Clay City","IN","47841","8074","CLAY" 
"Walmart 3851",-86.831169,40.29921,"2347 Veterans Memorial Pkwy S","","Lafayette","IN","47909","9183","TIPPECANOE" 
"MADHAR PETROLEUM",-86.041718,39.722885,"7130 Southeastern Ave","","Indianapolis","IN","46239","1208","MARION" 
"WALGREENS  2952",-86.142395,39.707848,"4001 Madison Ave","","Indianapolis","IN","46227","1509","MARION" 
"LAS AMERICAS",-86.027016,39.837124,"4407 N Franklin Rd","","Indianapolis","IN","46226","2981","MARION" 
"DOLLAR TREE 2005",-85.974998,41.72438,"280 County Road 6 E","","Elkhart","IN","46514","5560","ELKHART" 
"DOLLAR TREE 2466",-87.339439,41.470798,"295 W Lincoln Hwy","","Merrillville","IN","46410","","LAKE" 
"DOLLAR TREE 3164",-87.415825,39.425537,"3468 S US Highway 41","","Terre Haute","IN","47802","","VIGO" 
"DOLLAR TREE 0719",-85.135796,41.127468,"5321 Coldwater Rd","","Fort Wayne","IN","46825","5444","ALLEN" 
"DOLLAR TREE 0748",-87.361023,41.554241,"3528 Village Ct","","Gary","IN","46408","1428","LAKE" 
"SUNNY & JUGAD FOOD MART INC",-85.396217,40.207993,"1630 N Wheeling Ave","","Muncie","IN","47303","1607","DELAWARE" 
"Target Store 2217",-85.135124,41.111729,"3801 Coldwater Rd","","Fort Wayne","IN","46805","1101","ALLEN" 
"Gordon Food Service MP132",-86.317337,39.763851,"8805 Rockville Rd","","Indianapolis","IN","46234","2731","MARION" 
"MARTIN'S SUPER MARKET 25",-86.173813,41.726261,"7355 Heritage Square Dr","","Granger","IN","46530","5643","ST JOSEPH" 
"KROGER J 843",-86.870605,40.43214,"2200 Greenbush St","","Lafayette","IN","47904","2342","TIPPECANOE" 
"KROGER J 970",-86.161415,40.021175,"150 W 161st St","","Westfield","IN","46074","8565","HAMILTON" 
"West Side Pantry & Food",-86.215431,39.78783,"3360 W 16th St","","Indianapolis","IN","46222","2600","MARION" 
"Marathon Food Mart",-87.560921,37.988361,"201 E Louisiana St","","Evansville","IN","47711","5019","VANDERBURGH" 
"Pooles Meat Market",-85.791634,40.844803,"1333 N State Road 13","","Wabash","IN","46992","7737","WABASH" 
"DOLLAR TREE 0121",-85.754791,38.318001,"1140 Lewis and Clark Pkwy","","Clarksville","IN","47129","7735","CLARK" 
"DOLLAR TREE 0632",-87.429482,41.55127,"330 W Ridge Rd","","Griffith","IN","46319","1016","LAKE" 
"DOLLAR TREE 0725",-86.122169,39.84935,"5302 N Keystone","Suite B","Indianapolis","IN","46220","","MARION" 
"DOLLAR TREE 0726",-85.999016,39.774414,"9491 E Washington St","","Indianapolis","IN","46229","3085","MARION" 
"DOLLAR TREE 1541",-87.492599,37.966042,"800 S Green River Rd","","Evansville","IN","47715","4106","VANDERBURGH" 
"Marathon",-86.239342,39.853298,"4720 W 56th St","","Indianapolis","IN","46254","1510","MARION" 
"Country Choice",-86.10598,40.476753,"1902 E Markland Ave","","Kokomo","IN","46901","6236","HOWARD" 
"Marsh Supermarket 58",-86.027901,40.048412,"17901 River Ave","","Nobelsville","IN","46062","","HAMILTON" 
"Walgreens 10123",-87.335358,41.420582,"10795 Broadway","","Crown Point","IN","46307","7310","LAKE" 
"Walgreens 06965",-86.158989,41.733025,"15005 State Road 23","","Granger","IN","46530","9666","ST JOSEPH" 
"Walgreens 09644",-86.025475,40.046993,"555 Westfield Rd","","Noblesville","IN","46060","1321","HAMILTON" 
"Walgreens 06165",-86.236259,39.939835,"10595 N Michigan Rd","","Carmel","IN","46032","9685","HAMILTON" 
"DOLLAR GENERAL 10769",-86.149445,39.79652,"2131 Central Ave","","Indianapolis","IN","46202","1636","MARION" 
"D & R Specialities Inc",-86.838913,40.418537,"105 N Creasy Ln","","Lafayette","IN","47905","4412","TIPPECANOE" 
"Stop One Food & Gas",-86.300995,39.779125,"7902 W 10th St","","Indianapolis","IN","46214","2435","MARION" 
"Madi's Market",-86.249695,41.648441,"209 S Michigan St","","South Bend","IN","46601","2001","ST JOSEPH" 
"Westport Mini Mart",-85.581558,39.176228,"102 N State Road 3","","Westport","IN","47283","9680","DECATUR" 
"Paveys Carthage",-85.570862,39.739731,"12 N Main St","","Carthage","IN","46115","0077","RUSH" 
"Spring Street Marathon",-85.799927,38.296562,"2100 E Spring St","","New Albany","IN","47150","1565","FLOYD" 
"Dollar General 10863",-86.135704,38.17963,"1480 Old Hwy 135 NE","","Corydon","IN","47112","","HARRISON" 
"DOLLAR TREE 0514",-86.901924,40.387894,"109 Beck Ln","Ste 111","Lafayette","IN","47909","2858","TIPPECANOE" 
"DOLLAR TREE 0611",-85.404808,40.218872,"1605 W McGalliard Rd","","Muncie","IN","47304","2206","DELAWARE" 
"DOLLAR TREE 0718",-86.264458,39.798508,"5926A Crawfordsville Rd","","Speedway","IN","46224","3722","MARION" 
"Dollar Tree 2831",-86.075874,39.694641,"5365 E Thompson Rd","","Indianapolis","IN","46237","4094","MARION" 
"Dollar Tree 1352",-86.149033,39.712688,"3680 S East St","Suite D","Indianapolis","IN","46227","1239","MARION" 
"Dollar Tree 2928",-85.8181,38.322784,"1929 McDonald Lane","","New Albany","IN","47150","","FLOYD" 
"Circle K 2224",-85.763504,38.301792,"820 Eastern Blvd","","Clarksville","IN","47129","2337","CLARK" 
"Walgreens 09278",-85.970032,39.775776,"11025 E Washington St","","Indianapolis","IN","46229","3109","MARION" 
"Walgreens 09489",-85.787056,39.51503,"1010 E State Road 44","","Shelbyville","IN","46176","1770","SHELBY" 
"East Side Pantry",-86.010201,39.83379,"4208 N Post Rd","","Indianapolis","IN","46226","4217","MARION" 
"SC Oil Inc",-86.159058,39.737652,"2160 S Meridian St","","Indianapolis","IN","46225","1923","MARION" 
"Carniceria San Jose",-85.865234,41.600494,"2124 Elkhart Rd","","Goshen","IN","46526","1116","ELKHART" 
"Kokomo Gas & Food Inc",-86.126869,40.510811,"2500 N Apperson Way","","Kokomo","IN","46901","1452","HOWARD" 
"Jennys Bakery",-86.270912,41.66703,"740 S Walnut St","","South Bend","IN","46619","3844","ST JOSEPH" 
"Walmart Supercenter 3436",-86.25843,41.628826,"700 W Ireland Rd","","South Bend","IN","46614","3810","ST JOSEPH" 
"Walmart Supercenter 1162",-87.154694,38.655434,"1801 S State Rd 57","","Washington","IN","47501","4180","DAVIESS" 
"Walmart Supercenter 1728",-85.653313,40.066227,"2321 Charles St","","Anderson","IN","46013","2762","MADISON" 
"Citgo Brown Hen One Stop",-86.144775,39.80349,"2501 N College Ave","","Indianapolis","IN","46205","4268","MARION" 
"Grove",-86.074211,39.796307,"5460 E 21st St","","Indianapolis","IN","46218","4873","MARION" 
"Walgreens 09827",-86.077171,40.766109,"720 N Broadway","","Peru","IN","46970","1027","MIAMI" 
"Walgreens 09128",-84.851295,39.83102,"3700 National Rd E","","Richmond","IN","47374","3643","WAYNE" 
"Dollar General 10798",-85.115883,41.10804,"3520 N Anthony Blvd","","Fort Wayne","IN","46805","1424","ALLEN" 
"Dollar General 10819",-86.838959,40.41925,"101 N Creasy Ln","Ste A","Lafayette","IN","47905","4412","TIPPECANOE" 
"Walgreens 10929",-86.131424,39.737762,"1650 E Raymond St","","Indianapolis","IN","46203","4143","MARION" 
"Dollar General Store 10276",-87.51886,41.501785,"1620 Sheffield Ave","","Dyer","IN","46311","1555","LAKE" 
"Papa Murphys Take n Bake Pizza",-85.98008,39.858883,"10635 Pendleton Pike","","Indianapolis","IN","46236","","MARION" 
"Circle K 2291",-86.16153,39.795334,"2104 N Capitol Ave","","Indianapolis","IN","46202","1225","MARION" 
"Phillips 66",-86.201271,39.787971,"2411 W 16th St","","Indianapolis","IN","46222","2835","MARION" 
"Walgreens 05853",-86.159134,39.605293,"720 S State Road 135","","Greenwood","IN","46143","9410","JOHNSON" 
"Walgreens 10426",-86.217041,40.041821,"3275 State Road 32 W","","Westfield","IN","46074","","HAMILTON" 
"Walgreens 09826",-85.626945,39.003712,"9 N State St","","North Vernon","IN","47265","1723","JENNINGS" 
"Marathon",-87.067459,41.611603,"1175 Broadway","","Chesterton","IN","46304","2100","PORTER" 
"Circle K 84",-87.574165,38.01453,"3900 N 1st Ave","","Evansville","IN","47710","3612","VANDERBURGH" 
"Dollar General 10621",-85.248642,40.300171,"1120 W Walnut St","","Albany","IN","47320","1556","DELAWARE" 
"Dollar General 10645",-85.479805,40.866676,"1203 Evergreen Rd","","Huntington","IN","46750","4070","HUNTINGTON" 
"Sunoco Food Mart",-86.533554,39.149719,"1602 S Walnut St","","Bloomington","IN","47401","7715","MONROE" 
"Sunoco Food Mart",-85.671654,40.158981,"3622 N State Road 9","","Anderson","IN","46012","1244","MADISON" 
"McFall Family Meats",-86.75386,37.960281,"1414 20th St","","Tell City","IN","47586","2812","PERRY" 
"CVS Pharmacy 45",-86.046555,39.826908,"6975 Pendleton Pike","","Indianapolis","IN","46226","","MARION" 
"CVS/Pharmacy, Inc 6814",-85.255081,39.070656,"221 S High St","","Versailles","IN","47042","9523","RIPLEY" 
"CVS/Pharmacy, Inc 8643",-86.064285,39.782242,"1030 N Arlington Ave","","Indianapolis","IN","46219","3261","MARION" 
"CVS/Pharmacy, Inc 8676",-86.189018,41.680401,"502 W McKinley Ave","","Mishawaka","IN","46545","5520","ST JOSEPH" 
"CVS Pharmacy 1658",-86.400124,39.778236,"1074 N State Road 267","","Avon","IN","46123","8863","HENDRICKS" 
"CVS Pharmacy 6475",-85.965836,41.659458,"104 W Hively Ave","","Elkhart","IN","46517","2113","ELKHART" 
"CVS Pharmacy 6605",-86.067108,39.926151,"9550 Allisonville Rd","","Indianapolis","IN","46250","1201","MARION" 
"CVS Pharmacy 6654",-86.15844,39.635399,"8970 S Meridian St","","Indianapolis","IN","46217","5031","MARION" 
"CVS Pharmacy 6780",-85.77877,38.685585,"815 W McClain Ave","","Scottsburg","IN","47170","1127","SCOTT" 
"Circle K 2271",-85.703484,38.352863,"5202 E Highway 62","","Jeffersonville","IN","47130","8707","CLARK" 
"Walgreens 10074",-86.099083,40.476704,"2345 E Markland Ave","","Kokomo","IN","46901","6245","HOWARD" 
"Walgreens 09689",-85.826599,40.80357,"487 N Cass St","","Wabash","IN","46992","2443","WABASH" 
"Dollar General 10890",-86.240417,39.851559,"5490 Georgetown Rd","","Indianapolis","IN","46254","3781","MARION" 
"Dollar General 11012",-86.897247,41.680317,"244 W US Highway 20","","Michigan City","IN","46360","7371","LA PORTE" 
"Target Store 1286",-87.030823,41.468254,"2450 Laporte Ave","","Valparaiso","IN","46383","","PORTER" 
"Troyer Country Outlet",-85.793556,41.591759,"17141 State Road 4","","Goshen","IN","46528","6674","ELKHART" 
"Cataract Lake Grocery store",-86.869713,39.445988,"10710 Boat Dock Rd","","Poland","IN","47868","7453","OWEN" 
"Deals 3604",-87.333069,39.43993,"2191 S State Road 46","","Terre Haute","IN","47803","9781","VIGO" 
"Fiesta Mexicana",-85.967995,41.688831,"111 Junior Achievement Dr","","Elkhart","IN","46516","3573","ELKHART" 
"Miller K Market",-87.277855,41.596424,"5019 US Highway 12","","Gary","IN","46403","","LAKE" 
"Circle K 120",-87.539406,38.01413,"4104 Highway 41 N","","Evansville","IN","47711","","VANDERBURGH" 
"Circle K 93",-87.492584,37.97374,"300 S Green River Rd","","Evansville","IN","47715","7306","VANDERBURGH" 
"Circle K 26",-87.179794,38.652626,"401 E National Hwy","","Washington","IN","47501","4115","DAVIESS" 
"Circle K 42",-85.756165,38.392448,"602 S Indiana Ave","","Sellersburg","IN","47172","","CLARK" 
"Circle K 86",-85.824226,38.285904,"401 State St","","New Albany","IN","47150","3618","FLOYD" 
"Circle K 96",-85.790428,38.685177,"1505 W McClain Ave","","Scottsburg","IN","47170","1163","SCOTT" 
"Circle K 130",-85.77758,38.536346,"414 Colonels Way W","","Henryville","IN","47126","9796","CLARK" 
"Hudson Gas",-87.459946,41.588387,"2849 169th St","","Hammond","IN","46323","1657","LAKE" 
"1st Choice Market",-87.513756,41.612808,"5600 S Sohl Ave","Unit 2","Hammond","IN","46320","","LAKE" 
"Bloomington Community Farmers Market",-86.536209,39.169544,"401 N Morton St","Suite 250","Bloomington","IN","47404","3729","MONROE" 
"Dollar General 10760",-86.603523,41.07119,"1067 US Hwy 35","","Winamac","IN","46996","","PULASKI" 
"Dollar General 10949",-85.72612,41.667126,"851 US Hwy 20 W","","Middlebury","IN","46540","","ELKHART" 
"Target Store 1530",-85.379494,40.222656,"3601 N Barr St","","Muncie","IN","47303","1246","DELAWARE" 
"Ludlow Hill Supermarket",-84.882622,39.120716,"459 Bielby Rd","","Lawrenceburg","IN","47025","1057","DEARBORN" 
"Circle K 74",-87.320709,39.48164,"6270 Wabash Ave","","Terre Haute","IN","47803","3936","VIGO" 
"Circle K 71",-86.523018,39.258263,"7340 N Wayport Rd","","Bloomington","IN","47408","9315","MONROE" 
"Circle K 2210",-85.135559,41.349373,"201 S Randolph St","","Garrett","IN","46738","1469","DE KALB" 
"Circle K 39",-86.53875,39.166557,"503 W Kirkwood Ave","","Bloomington","IN","47404","5161","MONROE" 
"Circle K 33",-86.528252,39.16452,"527 E 3rd St","","Bloomington","IN","47401","3654","MONROE" 
"Scott's J-405",-85.130112,41.116058,"4120 N Clinton St","","Ft Wayne","IN","46805","","ALLEN" 
"Scott's J-407",-84.937347,40.819523,"929 S 13th St","","Decatur","IN","46733","1805","ADAMS" 
"Scott's J-410",-85.169266,41.018318,"7008 Bluffton Rd","","Fort Wayne","IN","46809","2706","ALLEN" 
"Kroger J-412",-85.15744,41.095982,"1125 West State Blvd","","Ft Wayne","IN","46808","","ALLEN" 
"Scott's J-414",-85.166725,40.720955,"1555 S Harrison Plz","","Bluffton","IN","46714","9400","WELLS" 
"Kroger J-990",-85.260506,41.034027,"5725 Coventry Ln","","Fort Wayne","IN","46804","7146","ALLEN" 
"Scott's J-418",-85.270515,41.45237,"310 W North St","","Kendallville","IN","46755","1004","NOBLE" 
"Scott's J-424",-85.275314,41.075565,"10230 Chestnut Plaza Dr","","Fort Wayne","IN","46814","8970","ALLEN" 
"Kroger J-425",-85.059959,41.10075,"6310 E State Blvd","","Fort Wayne","IN","46815","7023","ALLEN" 
"Circle K 82",-86.142517,38.21946,"825 W Highway 62","","Corydon","IN","47112","1939","HARRISON" 
"Circle K 2248",-85.153755,41.096401,"2304 Sherman Blvd","","Fort Wayne","IN","46808","3162","ALLEN" 
"Papa Murphy's Pizza",-85.883774,39.216614,"1675 N National Rd","","Columbus","IN","47201","5501","BARTHOLOMEW" 
"Woodmar Gas & Food Mart",-87.480659,41.588478,"2007 169th St","","Hammond","IN","46323","2067","LAKE" 
"Dollar General 10960",-85.087875,41.08725,"1133 N Coliseum Blvd","","Fort Wayne","IN","46805","5521","ALLEN" 
"Dollar General 10961",-86.026031,39.836948,"8050 Pendleton Pike","","Lawrence","IN","46226","4013","MARION" 
"Circle K 23",-86.097313,39.665508,"4054 E Southport Rd","","Indianapolis","IN","46237","3228","MARION" 
"Aihua Oriental Market",-87.492599,37.992191,"1624 N Green River Rd","","Evansville","IN","47715","1902","VANDERBURGH" 
"Circle K 2268",-86.887413,40.043636,"1008 Darlington Ave","","Crawfordsville","IN","47933","1909","MONTGOMERY" 
"Super Avenida",-87.505371,41.626522,"924 E Hoffman St","","Hammond","IN","46327","1835","LAKE" 
"Seafood & More",-87.355713,41.544613,"4061 Grant St","","Gary","IN","46408","2503","LAKE" 
"Joe's Corner",-85.264954,41.440498,"327 S Main St","","Kendallville","IN","46755","1719","NOBLE" 
"Walgreens 10184",-86.216446,41.693577,"1351 N Ironwood Dr","","South Bend","IN","46615","3566","ST JOSEPH" 
"Walgreens 07618",-86.089577,40.000607,"14625 N Gray Rd","","Westfield","IN","46062","9274","HAMILTON" 
"Walgreens 09321",-87.600494,37.985012,"710 N Saint Joseph Ave","","Evansville","IN","47712","5557","VANDERBURGH" 
"Cash-N-Dash",-87.536346,38.674141,"512 Willow St","","Vincennes","IN","47591","1065","KNOX" 
"Circle K 2288",-86.121773,39.628204,"800 US Highway 31 N","","Greenwood","IN","46142","4401","JOHNSON" 
"Circle K 2307",-86.082413,39.666443,"6955 S Emerson Ave","","Indianapolis","IN","46237","3309","MARION" 
"Circle K 2286",-85.915108,39.816128,"2224 N 600 W","","Greenfield","IN","46140","7981","HANCOCK" 
"Crossroads Pantry",-84.960777,40.591393,"115 S Main St","","Geneva","IN","46740","8965","ADAMS" 
"Lucky Star Petroleum Inc",-86.06546,39.840446,"5960 E 46th St","","Indianapolis","IN","46226","3317","MARION" 
"Gordon Food Service MP137",-85.766068,38.325481,"1060 Veterans Pkwy","","Clarksville","IN","47129","2354","CLARK" 
"Rockport BP Food Mart 16",-87.049568,37.890354,"612 N 5th St","","Rockport","IN","47635","1102","SPENCER" 
"SK Oil Incorporated",-85.3629,39.930119,"214 S 18th St","","New Castle","IN","47362","3907","HENRY" 
"Circle K 2228",-85.798355,38.335865,"3706 Charlestown Rd","","New Albany","IN","47150","9575","FLOYD" 
"Dollar General 11053",-86.667213,39.354095,"600 N 7th St","","Gosport","IN","47433","7056","OWEN" 
"Gas & Food Mart",-85.384483,39.961372,"2037 N State Road 3","","New Castle","IN","47362","5128","HENRY" 
"Concannons Pastry Shop",-85.386292,40.198692,"620 N Walnut St","","Muncie","IN","47305","1453","DELAWARE" 
"Batesville Food Mart",-85.20195,39.289688,"1340 State Road 46 E","","Batesville","IN","47006","9269","RIPLEY" 
"Newpoint Food Mart",-85.325851,39.311886,"1810 S 850 E","","Newpoint","IN","47263","","DECATUR" 
"Walgreens 10486",-87.122681,39.524166,"501 E National Ave","","Brazil","IN","47834","2633","CLAY" 
"Walgreens 09482",-86.181198,41.68047,"110 E McKinley Ave","","Mishawaka","IN","46545","6217","ST JOSEPH" 
"JK Imports Grocery and Deli",-86.524651,41.148235,"8995 U.S. 35","","Monterey","IN","46960","","PULASKI" 
"Circle K 4",-86.158974,39.606213,"692 S State Road 135","","Greenwood","IN","46142","1428","JOHNSON" 
"Circle K 85",-86.064041,39.483749,"349 N Morton St","","Franklin","IN","46131","1681","JOHNSON" 
"La Chiquita",-86.85836,40.431782,"1440 Sagamore Pkwy N Ste 2","","Lafayette","IN","47904","2472","TIPPECANOE" 
"Pinewood Plaza",-86.755493,39.125175,"1543 N State Rd 45","","Solsberry","IN","47459","","GREENE" 
"United PSM Marathon",-87.494652,38.68771,"2734 Washington Ave","","Vincennes","IN","47591","3639","KNOX" 
"Target Store 108",-87.574135,38.015923,"4000 N 1st Ave","","Evansville","IN","47710","3614","VANDERBURGH" 
"Target Store 1446",-85.906227,41.623287,"3938 Midway Rd","","Goshen","IN","46526","5854","ELKHART" 
"Worthington Country Market",-86.974907,39.12196,"319 Canal St","","Worthington","IN","47471","1203","GREENE" 
"United Marathon",-85.165215,41.067551,"2001 Brooklyn Ave","","Fort Wayne","IN","46802","6705","ALLEN" 
"Morrison's",-86.761429,40.524647,"7420 State Road 25 N","","Lafayette","IN","47905","8209","TIPPECANOE" 
"Dollar Tree 3162",-86.107117,39.606319,"707 S Madison Ave","Ste L","Greenwood","IN","46143","2479","JOHNSON" 
"Dollar Tree 3521",-86.496513,40.278915,"1407 E Wabash St","","Frankfort","IN","46041","2742","CLINTON" 
"Baobab African Market",-86.208466,39.88221,"7031 Michigan Rd","","Indianapolis","IN","46268","2742","MARION" 
"Zip Foods",-87.153816,41.59848,"1856 Samuelson Rd","","Portage","IN","46368","1760","PORTER" 
"Poland Hardware & Grocery",-86.95137,39.444099,"8475 E St Rd 42","","Poland","IN","47868","","OWEN" 
"Papa Murphy's Pizza",-85.918724,39.95874,"11630 Olio Rd","Ste 120","Fishers","IN","46037","7678","HAMILTON" 
"Dollar General 11037",-85.548523,40.062572,"704 Norfleet Dr W","","Middletown","IN","47356","9551","HENRY" 
"Family Dollar 2215",-87.445068,41.588173,"3434 169th St","","Hammond","IN","46323","2542","LAKE" 
"Quick Pick South",-87.125458,39.503712,"7996 N State Road 59","","Brazil","IN","47834","8277","CLAY" 
"Walgreens 10487",-86.049782,39.666492,"6745 E Southport Rd","","Indianapolis","IN","46237","9728","MARION" 
"Walgreens 10533",-85.442589,40.220051,"3250 N Morrison Rd","","Muncie","IN","47304","5540","DELAWARE" 
"KB International Inc",-86.121964,39.85207,"5425 N Keystone Ave","Ste 400","Indianapolis","IN","46220","3669","MARION" 
"Oriental Market",-86.187256,41.693623,"3618 Grape Rd","Ste 130","Mishawaka","IN","46545","2743","ST JOSEPH" 
"Circle K 2240",-86.914444,40.431763,"706 Northwestern Ave","","Lafayette","IN","47906","2659","TIPPECANOE" 
"Circle K 54",-86.424309,39.407364,"320 E Southview Dr","","Martinsville","IN","46151","3300","MORGAN" 
"Circle K 133",-86.107048,40.476727,"1800 E Markland Ave","","Kokomo","IN","46901","6234","HOWARD" 
"Circle K 35",-87.414131,39.470272,"380 N 3rd St","","Terre Haute","IN","47807","2923","VIGO" 
"Target Store 111",-86.107933,40.476013,"1037 S Reed Rd","","Kokomo","IN","46902","1929","HOWARD" 
"Save-A-Lot",-86.062279,40.747726,"25 Broadway Plz","","Peru","IN","46970","1052","MIAMI" 
"Circle K 48",-86.53524,39.178993,"201 W 17th St","","Bloomington","IN","47404","3535","MONROE" 
"Circle K 29",-86.582626,39.141071,"2510 S Leonard Springs Rd","","Bloomington","IN","47403","3134","MONROE" 
"Circle K 1",-86.490509,38.86097,"1428 16th St","","Bedford","IN","47421","3710","LAWRENCE" 
"Georgetown Shell",-85.059525,41.101124,"6321 E State Blvd","","Fort Wayne","IN","46815","7022","ALLEN" 
"Crescent Corners Express",-85.123299,41.096695,"1202 E State Blvd","","Fort Wayne","IN","46805","4426","ALLEN" 
"Save A Lot Food Store",-86.893921,41.695911,"3830 Franklin St","","Michigan City","IN","46360","7313","LA PORTE" 
"Mahik Petroleum",-86.12307,40.476597,"804 E Markland Ave","","Kokomo","IN","46901","6215","HOWARD" 
"Ridge Food",-87.418381,41.550014,"819 E Ridge Rd","","Griffith","IN","46319","1151","LAKE" 
"Dollar General 11134",-85.314659,41.216469,"3628 N US Highway 33","","Churubusco","IN","46723","9309","WHITLEY" 
"Dollar General 10666",-86.062164,39.694988,"6040 E Thompson Rd","Suite X","Indianapolis","IN","46237","","MARION" 
"WALGREENS 09290",-87.356209,41.573299,"2500 Grant St","","Gary","IN","46404","3508","LAKE" 
"Dollar General 10756",-86.316139,41.455849,"1212 US Hwy 31","","Lapaz","IN","46537","","MARSHALL" 
"Dollar General 10947",-85.32515,40.193413,"5350 E Jackson St","","Muncie","IN","47303","4482","DELAWARE" 
"Family Dollar 7675",-86.139656,39.736217,"2245 Shelby St","","Indianapolis","IN","46203","4260","MARION" 
"Walgreens 4560",-87.177963,41.586552,"5995 U.S. HWY #6","","Portage","IN","46368","","PORTER" 
"Family Dollar 7582",-87.280205,41.595284,"4733 Melton Rd","","Gary","IN","46403","2969","LAKE" 
"Circle K 65",-85.948654,39.286251,"10080 US 31","","Taylorsville","IN","47280","","BARTHOLOMEW" 
"WALGREENS  5787",-87.467865,41.490192,"651 W US Highway 30","","Schererville","IN","46375","1649","LAKE" 
"WALGREENS  3352",-87.461555,41.588188,"6905 Kennedy Ave","","Hammond","IN","46323","2210","LAKE" 
"WALGREENS  4462",-87.500229,41.594769,"6510 S Columbia Ave","","Hammond","IN","46320","2748","LAKE" 
"WALGREENS  06106",-87.508476,41.492844,"770 Joliet St","","Dyer","IN","46311","1720","LAKE" 
"WALGREENS  05194",-87.400787,41.289856,"1704 E Commercial Ave","","Lowell","IN","46356","2111","LAKE" 
"Walgreens 03680",-87.050819,41.485588,"1903 Calumet Ave","","Valparaiso","IN","46383","2703","PORTER" 
"East Side Marathon",-85.991051,39.796928,"9942 E 21st St","","Indianapolis","IN","46229","1794","MARION" 
"Greenwood Sunoco",-86.080818,39.614967,"1065 Southpark Dr","","Greenwood","IN","46143","9057","JOHNSON" 
"Family Dollar 5236",-87.410561,41.549397,"5990 W Ridge Rd","","Gary","IN","46408","1727","LAKE" 
"Family Dollar 1228",-87.392586,41.601849,"4509 W 5th Ave","","Gary","IN","46406","1832","LAKE" 
"Family Dollar 2071",-87.500076,41.596451,"6431 S Columbia Ave","","Hammond","IN","46320","2746","LAKE" 
"Family Dollar 6937",-87.335754,41.549763,"61 E Ridge Rd","","Gary","IN","46409","1545","LAKE" 
"Family Dollar 1404",-87.498787,41.67934,"1241 119th St","","Whiting","IN","46394","1601","LAKE" 
"Family Dollar 7073",-87.343445,41.602039,"500 W 5th Ave","","Gary","IN","46402","1804","LAKE" 
"Family Dollar 5618",-87.517334,41.646221,"3704 S Sheffield Ave","","Hammond","IN","46327","1163","LAKE" 
"Family Dollar 6873",-87.444946,41.639469,"4020 Main St","","East Chicago","IN","46312","2811","LAKE" 
"Family Dollar 7244",-87.496384,41.629028,"1301 E Chicago St","","Hammond","IN","46327","1755","LAKE" 
"Family Dollar 5463",-87.335579,41.589008,"1401 Massachusetts St","","Gary","IN","46407","1335","LAKE" 
"Sunset Market",-87.557938,37.964668,"507 E Powell Ave","","Evansville","IN","47713","1605","VANDERBURGH" 
"Family Dollar 1402",-86.160683,39.824764,"131 W 38th St","","Indianapolis","IN","46208","4272","MARION" 
"Family Dollar 3741",-86.107597,39.759884,"3419 English Ave","","Indianapolis","IN","46201","4328","MARION" 
"Family Dollar 1188",-86.082779,39.788906,"5102 E 16th St","","Indianapolis","IN","46218","4719","MARION" 
"Family Dollar 1771",-86.221992,39.721745,"2931 Kentucky Ave","","Indianapolis","IN","46221","2104","MARION" 
"Family Dollar 5437",-86.103889,39.803436,"3712 E 25th St","","Indianapolis","IN","46218","3849","MARION" 
"Family Dollar 1387",-86.102905,39.77198,"3757 E New York St","","Indianapolis","IN","46201","3440","MARION" 
"Family Dollar 3646",-86.064186,39.782974,"1107A N Arlington Ave","","Indianapolis","IN","46219","3226","MARION" 
"Family Dollar 5691",-86.08062,39.760418,"5220 English Ave","","Indianapolis","IN","46219","8013","MARION" 
"Family Dollar 3397",-86.249176,39.753113,"5229 W Washington St","","Indianapolis","IN","46241","2207","MARION" 
"Family Dollar 3940",-86.009331,39.796986,"2119 N Post Rd","","Indianapolis","IN","46219","1948","MARION" 
"Family Dollar 4528",-86.210228,39.764885,"3021 W Washington St","","Indianapolis","IN","46222","4054","MARION" 
"Dollar Tree 6542",-86.016006,39.841663,"8625 Pendleton Pike","","Indianapolis","IN","46226","6603","MARION" 
"Brooklyn Dairyland",-86.371559,39.546593,"8074 N Old State Road 67","","Mooresville","IN","46158","6399","MORGAN" 
"Circle K 27",-85.970802,39.32185,"13340 US 31 S","","Edinburgh","IN","46124","","JOHNSON" 
"Road Ranger 240",-87.240105,41.578514,"2151 Ripley St","","Lake Station","IN","46405","1163","LAKE" 
"Road Ranger 141",-87.125122,39.445808,"990 W SR 42","","Brazil","IN","47834","","CLAY" 
"Dollar General 11040",-85.542244,38.560497,"329 N Highway 62","","New Washington","IN","47162","9142","CLARK" 
"Walgreens 10720",-85.388458,38.775131,"129 Clifty Dr","","Madison","IN","47250","1601","JEFFERSON" 
"Family Dollar 2293",-86.121506,39.648891,"8083 Madison Ave","","Indianapolis","IN","46227","6005","MARION" 
"Family Dollar 2374",-86.254829,39.816406,"5435 W 34th St","","Indianapolis","IN","46224","2224","MARION" 
"Family Dollar 4252",-86.270294,39.820568,"3650 N High School Rd","","Indianapolis","IN","46224","1158","MARION" 
"Family Dollar 5391",-86.170395,39.78191,"611 W 11th St","","Indianapolis","IN","46202","3043","MARION" 
"Family Dollar 5411",-86.132072,39.767246,"1610 E Washington St","","Indianapolis","IN","46201","3851","MARION" 
"Family Dollar 6877",-86.140961,39.751484,"1017 E Morris St","","Indianapolis","IN","46203","1809","MARION" 
"Family Dollar 3907",-86.048851,39.825928,"6800 Pendleton Pike","Suite 1","Indianapolis","IN","46226","5662","MARION" 
"Family Dollar 6164",-86.062775,39.796345,"6030 E 21st St","","Indianapolis","IN","46219","2003","MARION" 
"Family Dollar 6516",-86.121841,39.846272,"5135 N Keystone Ave","","Indianapolis","IN","46205","1559","MARION" 
"Family Dollar 1052",-86.010941,39.825962,"8939 E 38th St","","Indianapolis","IN","46226","6032","MARION" 
"Family Dollar 1422",-86.123505,39.752388,"2211 Prospect St","","Indianapolis","IN","46203","2123","MARION" 
"Family Dollar 4200",-86.240112,39.85437,"5626 Georgetown Rd","","Indianapolis","IN","46254","1512","MARION" 
"Family Dollar 5554",-86.253563,39.765121,"5397 Rockville Rd","","Indianapolis","IN","46224","9111","MARION" 
"Family Dollar 6801",-86.241577,39.842636,"4849 Georgetown Rd","","Indianapolis","IN","46254","","MARION" 
"Family Dollar 1430",-86.204308,39.774662,"2636 W Michigan St","","Indianapolis","IN","46222","3727","MARION" 
"Family Dollar 5586",-86.104301,39.825287,"3701 E 38th St","","Indianapolis","IN","46218","1455","MARION" 
"Family Dollar 5840",-86.121941,39.810722,"2345 E 30th St","","Indianapolis","IN","46218","2706","MARION" 
"The Downtown Farm Stand",-85.386192,40.193615,"125 E Main St","","Muncie","IN","47305","2817","DELAWARE" 
"Walgreens 02467",-84.999542,41.659981,"2012 N Wayne St","","Angola","IN","46703","9102","STEUBEN" 
"Lost River Market & Deli",-86.466324,38.559055,"26 Library St","","Paoli","IN","47454","1356","ORANGE" 
"Walgreens 11085",-86.247849,41.733639,"52482 Indiana State Route 933","","South Bend","IN","46637","3852","ST JOSEPH" 
"Next Door Food Store 104",-86.62075,41.297821,"1 N Heaton St","","Knox","IN","46534","1207","STARKE" 
"G & S Marengo One Stop",-86.33744,38.372677,"181 E State Road 64","","Marengo","IN","47140","3165","CRAWFORD" 
"Simpson's Supermarket",-87.539383,37.955513,"1365 Covert Ave","","Evansville","IN","47714","3569","VANDERBURGH" 
"Circle K 121",-86.021164,39.482922,"2105 E King St","","Franklin","IN","46131","9364","JOHNSON" 
"Blooming Foods Market and Deli",-86.536346,39.167641,"316 W 6th St","","Bloomington","IN","47404","3912","MONROE" 
"Papa Murphy's Take 'N' Bake Pizza",-87.491325,38.011654,"4827 Davis Lant Dr","Ste C","Evansville","IN","47715","8946","VANDERBURGH" 
"7-Eleven 32422",-85.947731,41.724281,"25014 County Road 6","","Elkhart","IN","46514","5406","ELKHART" 
"7-Eleven 32423",-85.986984,41.724449,"27119 County Road 6","","Elkhart","IN","46514","5637","ELKHART" 
"Mama Ines Mexican Bakery",-86.195656,39.766342,"2001 W Washington St","Ste A1","Indianapolis","IN","46222","4549","MARION" 
"BH Market",-86.228424,39.724247,"3901 Farnsworth St","","Indianapolis","IN","46241","5731","MARION" 
"Walmart Supercenter 3781",-86.247871,39.837452,"4545 Lafayette Rd","","Indianapolis","IN","46254","2033","MARION" 
"Family Dollar 1214",-87.513756,41.613461,"5550 S Sohl Ave","Ste B","Hammond","IN","46320","2087","LAKE" 
"Family Dollar 1070",-86.127029,39.781338,"1836 E 10th St","","Indianapolis","IN","46201","1906","MARION" 
"Rensselaer Food Mart",-87.150871,40.942596,"701 N McKinley Ave","","Rensselaer","IN","47978","2049","JASPER" 
"Columbia Gas Mart",-87.500092,41.577343,"7507 Columbia Ave","","Hammond","IN","46324","3022","LAKE" 
"Aldi 56",-86.349983,39.76355,"9779 E US Highway 36","","Avon","IN","46123","7979","HENDRICKS" 
"Save-A-Lot",-85.095078,41.032406,"3310 E Paulding Rd","","Fort Wayne","IN","46816","4513","ALLEN" 
"Allens Country Market LLC",-86.034554,41.173389,"201 E Main St","","Mentone","IN","46539","7713","KOSCIUSKO" 
"Deals 3780",-87.495033,41.679291,"1410 119th St","","Whiting","IN","46394","1734","LAKE" 
"Huntington One Stop Corp",-85.48877,40.875214,"735 S Jefferson St","","Huntington","IN","46750","3336","HUNTINGTON" 
"Rai Bro Corporation",-85.675858,40.560081,"1402 W 2nd St","","Marion","IN","46952","3559","GRANT" 
"Circle K 2297",-86.008209,39.712833,"3801 S Post Rd","","Indianapolis","IN","46239","8302","MARION" 
"Walgreens 10719",-87.266319,41.596542,"801 S Lake St","","Gary","IN","46403","2918","LAKE" 
"HHB Petroleum Inc",-87.378342,40.5214,"207 N Old US Highway 41","","Boswell","IN","47921","","BENTON" 
"Dollar General 11137",-87.269669,41.54966,"760 N Wisconsin St","","Hobart","IN","46342","2057","LAKE" 
"Brookville IGA",-85.010742,39.410374,"11153 US 52","","Brookville","IN","47012","9670","FRANKLIN" 
"Tobacco City",-87.525154,41.6059,"5935 S State Line Ave","","Hammond","IN","46320","2462","LAKE" 
"William's Bakery",-85.774017,38.298882,"1051 N Clark Blvd","","Clarksville","IN","47129","1863","CLARK" 
"Rural Pantry",-86.116638,39.792393,"1856 N Rural St","","Indianapolis","IN","46218","4428","MARION" 
"Walmart Supercenter 4399",-86.058731,41.688461,"30830 Old US 20","","Elkhart","IN","46514","","ELKHART" 
"Springville General Store & Deli",-86.635719,38.955048,"60 Brick St","","Springville","IN","47462","","LAWRENCE" 
"Papa Murphy's Take N Bake Pizza",-86.131012,38.231876,"1885 Old Highway 135 NW","","Corydon","IN","47112","2012","HARRISON" 
"Desi Bazar 2",-86.085014,39.614288,"916 E Main St","Ste 118","Greenwood","IN","46143","1533","JOHNSON" 
"Walgreens 09359",-84.848183,39.123093,"432 Craig Ave","","Greendale","IN","47025","7529","DEARBORN" 
"Walgreens 05940",-85.12159,41.132763,"5830 N Clinton St","","Fort Wayne","IN","46825","5734","ALLEN" 
"Walgreens 10532",-86.773872,40.745037,"812 W Broadway St","","Monticello","IN","47960","2011","WHITE" 
"Walgreens 11454",-85.884575,38.95776,"319 E Tipton St","","Seymour","IN","47274","3513","JACKSON" 
"Dollar Tree 599",-86.894012,41.676582,"4209 Franklin St","","Michigan City","IN","46360","7805","LA PORTE" 
"Raber's Discount Groceries",-85.36702,41.518452,"11365 N State Rd 9","","Wolcottville","IN","46795","9633","LAGRANGE" 
"The Famous Tomato",-86.244598,39.780087,"5002 W 10th St","","Indianapolis","IN","46224","6902","MARION" 
"BS Food Market",-85.972054,39.82692,"3810 N German Church Rd","","Indianapolis","IN","46235","9737","MARION" 
"Fayetteville Grocery",-86.594986,38.86079,"5348 State Road 158","","Bedford","IN","47421","8568","LAWRENCE" 
"Romi Oil",-85.381638,39.928066,"310 S Memorial Dr","","New Castle","IN","47362","4949","HENRY" 
"JC Petroluem",-86.102272,39.737839,"3755 E Raymond St","","Indianapolis","IN","46203","4778","MARION" 
"TC Food Mart",-86.852959,41.694374,"400 Johnson Rd","","Trail Creek","IN","46360","6511","LA PORTE" 
"Dollar Tree 739",-86.352379,39.714767,"393 Plainfield Commons Dr","","Plainfield","IN","46168","2761","HENDRICKS" 
"Dollar Tree 912",-87.470985,41.491249,"1690 US Highway 41","Suite C","Schererville","IN","46375","1318","LAKE" 
"Walgreens 10974",-86.904686,40.388096,"2800 US Highway 231 S","","Lafayette","IN","47909","2831","TIPPECANOE" 
"Lassus Handy Dandy 21",-85.239998,41.369907,"245 N Main St","","Avilla","IN","46710","5216","NOBLE" 
"Dollar Tree 2482",-87.634781,37.977913,"4855 W Lloyd Expy","","Evansville","IN","47712","6520","VANDERBURGH" 
"Walmart Supercenter 4230",-85.166122,41.175949,"10105 Lima Rd","","Fort Wayne","IN","46818","","ALLEN" 
"Dollar Tree 3565",-86.514771,38.868073,"3132 John Williams Blvd","","Bedford","IN","47421","9177","LAWRENCE" 
"Shakamak IGA",-87.197266,39.163086,"220 E Main St","","Jasonville","IN","47438","1530","GREENE" 
"Cooper's Corner Mart",-85.59861,38.474949,"7302 Decker Ln","","Charlestown","IN","47111","9741","CLARK" 
"La Loma Food Market",-85.760681,38.297913,"554 Eastern Blvd","","Clarksville","IN","47129","2452","CLARK" 
"CVS 6644",-86.158775,39.607059,"640 S State Road 135","","Greenwood","IN","46142","1428","JOHNSON" 
"CVS 7634",-85.971939,39.826618,"3805 N German Church Rd","","Indianapolis","IN","46235","9737","MARION" 
"Dollar General 11235",-85.951958,39.291122,"9620 N US Highway 31","","Columbus","IN","47201","","BARTHOLOMEW" 
"Dollar Tree 2373",-86.173218,41.72031,"455 W University Dr","","Granger","IN","46530","","ST JOSEPH" 
"Dollar Tree 2997",-86.334473,39.63987,"8411 Windfall Ln Ste 40","","Camby","IN","46113","8027","MORGAN" 
"Walgreens 09793",-85.076256,41.179737,"5435 E Dupont Rd","","Fort Wayne","IN","46825","1746","ALLEN" 
"Family Dollar Store 1287",-86.217285,39.806248,"2802 Lafayette Rd","Ste 19B","Indianapolis","IN","46222","2112","MARION" 
"Indy Gas & Food Mart",-86.083679,39.818542,"3410 N Emerson Ave","","Indianapolis","IN","46218","1732","MARION" 
"Hometown IGA 450",-86.941345,38.388458,"750 W 2nd St","","Jasper","IN","47546","2650","DUBOIS" 
"Hometown IGA 451",-87.568863,38.355206,"205 W Broadway St","","Princeton","IN","47670","1503","GIBSON" 
"Buehlers Buy Low 452",-87.523163,37.991669,"2220 E Morgan Ave","","Evansville","IN","47711","4314","VANDERBURGH" 
"Buehlers IGA 453",-87.573975,38.020531,"4635 1st Ave","","Evansville","IN","47710","3625","VANDERBURGH" 
"Price Less Foods 432",-87.511169,37.9561,"1550 Vann Ave","","Evansville","IN","47714","3359","VANDERBURGH" 
"Price Less Foods 430",-87.63311,37.978199,"4851 W Lloyd Expy","","Evansville","IN","47712","6520","VANDERBURGH" 
"Buehlers Buy Low 456",-87.556259,38.091724,"12500 Highway 41 N","","Evansville","IN","47725","7031","VANDERBURGH" 
"Hank's Market 459",-87.164627,38.652424,"900 W National Hwy","","Washington","IN","47501","3350","DAVIESS" 
"Hometown IGA 460",-86.95546,38.306015,"1200 N Main St","","Huntingburg","IN","47542","1054","DUBOIS" 
"Hometown IGA 461",-87.347702,38.333904,"122 W Morton St","","Oakland City","IN","47660","","GIBSON" 
"Botanica La Voluntad De Dios",-86.889526,40.024689,"1000 Ladoga Rd Ste D","","Crawfordsville","IN","47933","4408","MONTGOMERY" 
"A & M Petroleum Inc",-85.921829,41.636265,"23719 US Highway 33","","Elkhart","IN","46517","3517","ELKHART" 
"Price Less IGA 434",-86.490349,38.874146,"510 N St","","Bedford","IN","47421","2122","LAWRENCE" 
"Hometown IGA 463",-86.914764,38.671612,"500 W Broadway St","","Loogootee","IN","47553","2438","MARTIN" 
"Hometown IGA 464",-86.592888,39.215012,"2681 W Richland Plaza","","Elletsville","IN","47404","","MONROE" 
"Hometown IGA 465",-87.049911,37.883247,"509 Main St","","Rockport","IN","47635","1429","SPENCER" 
"Buehlers IGA 466",-87.573174,37.970528,"200 Main St","","Evansville","IN","47708","1446","VANDERBURGH" 
"Walmart Supercenter 4417",-86.30526,39.632221,"8191 Upland Bnd","","Camby","IN","46113","7800","MORGAN" 
"T Mini Mart Inc",-87.520012,37.962708,"2400 Washington Ave","","Evansville","IN","47714","2402","VANDERBURGH" 
"Fast Point",-87.157455,39.035831,"789 A St NE","","Linton","IN","47441","1910","GREENE" 
"Carnicerias Las Rositas",-85.769028,38.311031,"1404 Blackiston Mill Rd #C","","Clarksville","IN","47129","","CLARK" 
"Waterloo Shell 2900",-85.019753,41.433193,"105 E Union St","","Waterloo","IN","46793","9344","DE KALB" 
"Basha Foods",-86.040848,39.9515,"11321 Village Square Ln","","Fishers","IN","46038","4554","HAMILTON" 
"Aldi 25",-87.336685,41.425411,"845 N Superior Dr","","Crown Point","IN","46307","","LAKE" 
"Huck's 320",-85.217659,39.296265,"568 E Pearl St","","Batesville","IN","47006","1528","RIPLEY" 
"Walgreens 10857",-85.947304,39.200394,"2140 W Jonathan Moore Pike","","Columbus","IN","47201","9455","BARTHOLOMEW" 
"Walgreens 11453",-85.801262,41.564796,"1755 Lincolnway E","","Goshen","IN","46526","6425","ELKHART" 
"Walgreens 11544",-86.120636,41.753563,"13060 Adams Rd","","Granger","IN","46530","","ST JOSEPH" 
"Simran Inc",-85.678352,41.755581,"50980 St Rd 13 N","","Middlebury","IN","46540","","ELKHART" 
"Fast Lane Food 2",-86.27388,40.421329,"120 E Main St","","Russiaville","IN","46979","9121","HOWARD" 
"Dollar General 6174",-86.530602,39.137325,"2430 S Walnut St","","Bloomington","IN","47401","7730","MONROE" 
"Dollar General 11216",-85.766556,40.219566,"400 S 11th St","","Frankton","IN","46044","9204","MADISON" 
"Dollar General 11092",-86.251114,41.238049,"685 W Walnut St","","Argos","IN","46501","1064","MARSHALL" 
"Dollar General 11262",-86.188583,40.5746,"415 S California St","","Galveston","IN","46932","9483","CASS" 
"Moco Food Center",-86.638474,39.110947,"7500 W State Road 45","","Bloomington","IN","47403","9251","MONROE" 
"Dollar Tree 700",-85.132797,41.038849,"304 E Pettit Ave","","Fort Wayne","IN","46806","3007","ALLEN" 
"Skyline One",-87.252708,41.521744,"515 E 10th St","","Hobart","IN","46342","6006","LAKE" 
"Dollar Tree 1313",-85.838463,38.306648,"470 New Albany Plz","","New Albany","IN","47150","4656","FLOYD" 
"CVS 44",-87.510933,38.013229,"3900 Oak Hill Rd","","Evansville","IN","47711","2980","VANDERBURGH" 
"CVS 3162",-84.888657,39.86219,"2150 Chester Blvd","","Richmond","IN","47374","1217","WAYNE" 
"CVS 4482",-87.473839,37.978374,"101 N Burkhardt Rd","","Evansville","IN","47715","2727","VANDERBURGH" 
"Highway 60 Hometown Express LLC",-85.94751,38.466984,"102 E Water St","","Borden","IN","47106","8935","CLARK" 
"KPS Food Mart 3",-85.667473,40.076458,"922 E 38th St","","Anderson","IN","46013","4908","MADISON" 
"Rickers Middletown 4",-85.546143,40.062389,"112 Maple Village","","Middletown","IN","47356","9337","HENRY" 
"Rickers 17",-85.6912,40.076347,"920 W 38th St","","Anderson","IN","46013","4027","MADISON" 
"Asia Market",-85.939941,41.648605,"2021A Shaffer Ave","","Elkhart","IN","46517","3115","ELKHART" 
"Target Store 2391",-86.122124,39.865112,"6101 N Keystone Ave","","Indianapolis","IN","46220","2488","MARION" 
"Aunt Millies Bakery Outlet",-86.022758,39.749126,"8215 Brookville Rd","","Indianapolis","IN","46239","8908","MARION" 
"Rite Aid 4029",-85.71315,38.322742,"3001 E 10th St","","Jeffersonville","IN","47130","","CLARK" 
"Dollar General 11257",-86.156921,39.409492,"783 Nathan Dr","","Trafalgar","IN","46181","8510","JOHNSON" 
"Dollar General 11353",-86.080383,41.663235,"901 Lincolnway W","","Osceola","IN","46561","2014","ST JOSEPH" 
"Dollar General 11147",-85.168129,41.025818,"6320 Bluffton Rd","","Fort Wayne","IN","46809","","ALLEN" 
"Dollar General 11280",-85.974274,41.743164,"51640 State Road 19","","Elkhart","IN","46514","5817","ELKHART" 
"Main Stop & Go",-85.951637,41.663799,"2400 S Main St","","Elkhart","IN","46517","4721","ELKHART" 
"Dollar Tree 1951",-86.501892,39.164211,"2568 E 3rd St","","Bloomington","IN","47401","5338","MONROE" 
"Universal Foods",-86.430542,39.711018,"5382 E County Road 350 S","","Plainfield","IN","46168","8339","HENDRICKS" 
"WALGREENS  3142",-86.238525,39.713306,"3455 Mann Rd","","Indianapolis","IN","46221","2337","MARION" 
"WALGREENS  2931",-86.121857,39.847588,"5199 N Keystone Ave","","Indianapolis","IN","46205","1518","MARION" 
"Walgreens 11795",-85.973976,41.73851,"3551 Cassopolis St","","Elkhart","IN","46514","6743","ELKHART" 
"Walgreens 10858",-86.83902,40.41663,"130 S Creasy Ln","","Lafayette","IN","47905","0749","TIPPECANOE" 
"Dollar Tree 3546",-86.349831,39.763554,"9795 E US Highway 36","","Avon","IN","46123","7979","HENDRICKS" 
"Dollar Tree 3036",-86.074448,39.905266,"5542 E 82nd St","","Indianapolis","IN","46250","1521","MARION" 
"Dollar Tree 3066",-85.394402,38.775028,"402 Clifty Dr","Suite 4","Madison","IN","47250","1664","JEFFERSON" 
"Dollar Tree 161",-85.885307,39.221302,"3180 Columbus Ctr","","Columbus","IN","47203","3417","BARTHOLOMEW" 
"Ashley Deli",-85.065437,41.527126,"104 E State St","","Ashley","IN","46705","5286","DE KALB" 
"El Compadre Supermarket",-85.666954,40.076653,"3724 Columbus Ave","","Anderson","IN","46013","5363","MADISON" 
"Dollar Tree 1375",-86.219276,39.91161,"3489 W 86th St","","Indianapolis","IN","46268","1948","MARION" 
"Dollar Tree 1284",-87.245201,41.550777,"7768 E Ridge Rd","","Hobart","IN","46342","2467","LAKE" 
"Aldi 81",-85.984169,39.856949,"10325 Pendleton Pike","","Indianapolis","IN","46236","2830","MARION" 
"Marycrest Marathon",-86.283119,41.672024,"2322 W Western Ave","","South Bend","IN","46619","3315","ST JOSEPH" 
"Oxford Gasway",-85.12793,41.053146,"3502 Hanna St","","Fort Wayne","IN","46806","4171","ALLEN" 
"Papa Murphy's Take'N'Bake Pizza In065",-87.574142,38.017429,"4202B N 1st Ave","","Evansville","IN","47710","3618","VANDERBURGH" 
"Family Express 53",-87.114922,41.492493,"252 W State Road 130","","Valpariaso","IN","46385","","PORTER" 
"FAMILY EXPRESS 46",-86.723183,41.598499,"1004 St Rd 2","","La Porte","IN","46350","4710","LA PORTE" 
"Family Express 56",-86.474045,40.071564,"2430 N Lebanon St","","Lebanon","IN","46052","1183","BOONE" 
"Dollar General 11281",-85.711044,40.097191,"1812 Raible Ave","","Anderson","IN","46011","4136","MADISON" 
"Jalisco Grocery",-86.858482,40.402794,"3315 McCarty Ln","","Lafayette","IN","47905","2261","TIPPECANOE" 
"Mann Road Pantry",-86.241096,39.700375,"4402 Mann Rd","","Indianapolis","IN","46221","3300","MARION" 
"Jaimes Grocery",-86.308945,41.340813,"116 E Garro St","","Plymouth","IN","46563","2108","MARSHALL" 
"BP Station",-85.79821,38.297497,"2202 E Spring St","","New Albany","IN","47150","1563","FLOYD" 
"Railer's IGA 1171",-86.467918,40.049416,"118 E North St","","Lebanon","IN","46052","2245","BOONE" 
"Target Store 2440",-85.201431,41.07526,"1102 S Thomas Rd","","Fort Wayne","IN","46804","1144","ALLEN" 
"Ladoga Quick Stop",-86.790489,39.914227,"1010 E Main St","","Ladoga","IN","47954","9363","MONTGOMERY" 
"Walgreens 10606",-86.117271,39.636597,"8945 Madison Ave","","Indianapolis","IN","46227","6309","MARION" 
"Dollar General 11287",-84.979774,39.818836,"1201 E Main St","","Centerville","IN","47330","","WAYNE" 
"Columbus Food Mart",-85.92141,39.209595,"1105 Washington St","","Columbus","IN","47201","5719","BARTHOLOMEW" 
"Joe's Junction 6",-86.249214,39.720284,"5220 W Troy Ave","","Indianapolis","IN","46241","6229","MARION" 
"Joe's Junction 7",-86.154083,39.734764,"2301 Madison Ave","","Indianapolis","IN","46225","2100","MARION" 
"Joe's Junction 8",-86.158211,39.419067,"214 N St Rd 135","","Trafalgar","IN","46181","","JOHNSON" 
"Joe's Junction 9",-86.198212,39.735664,"2210 Kentucky Ave","","Indianapolis","IN","46221","5000","MARION" 
"Dollar General 11310",-86.253471,39.373405,"529 E State Road 135","","Morgantown","IN","46160","9735","MORGAN" 
"Dollar General 11314",-86.165024,40.462234,"2050 S Dixon Rd","","Kokomo","IN","46902","7303","HOWARD" 
"Dollar General 11320",-85.665192,40.061798,"1177 E 53rd St","","Anderson","IN","46013","2815","MADISON" 
"Dollar Tree 3901",-86.90377,40.014294,"1740 S US Highway 231","","Crawfordsville","IN","47933","9417","MONTGOMERY" 
"Muncie Food Mart",-85.381729,40.168072,"2923 S Madison St","","Muncie","IN","47302","5135","DELAWARE" 
"Schnucks Market 744",-87.400375,37.975849,"8301 Bell Oaks Dr","","Newburgh","IN","47630","2586","WARRICK" 
"10th Street Pantry",-86.116425,39.781609,"1001 N Rural St","","Indianapolis","IN","46201","1326","MARION" 
"Dollar Tree 705",-86.191887,41.681667,"2352 Miracle Ln","","Mishawaka","IN","46545","3012","ST JOSEPH" 
"Walgreens 07926",-85.77742,38.367077,"5190 Charlestown Rd","","New Albany","IN","47150","9429","FLOYD" 
"Walgreens 10073",-86.165009,40.487797,"2400 W Sycamore St","","Kokomo","IN","46901","4035","HOWARD" 
"Turkey Hill Minit Market 600",-86.423698,39.409843,"1860 S Ohio St","","Martinsville","IN","46151","3320","MORGAN" 
"Circle K 2342",-85.951569,39.200363,"2415 W Jonathan Moore Pike","","Columbus","IN","47201","9206","BARTHOLOMEW" 
"Lassus Handy Dandy 36",-85.823677,41.24612,"777 Parker St","","Warsaw","IN","46580","3259","KOSCIUSKO" 
"Big Boy",-86.179016,39.820778,"3754 Dr Martin Luther King Jr St","","Indianapolis","IN","46208","4176","MARION" 
"Fuerte Meat Market",-87.517159,41.644062,"3811 S Hohman Ave","","Hammond","IN","46327","1160","LAKE" 
"Osgood Mart",-85.292244,39.131737,"358 N Buckeye St","","Osgood","IN","47037","1130","RIPLEY" 
"BP Food Mart W 38 St",-86.1586,39.824764,"37 W 38th St","","Indianapolis","IN","46208","","MARION" 
"CVS 3398",-87.337074,41.402237,"100 E US 231","","Crown Point","IN","46307","","LAKE" 
"CVS",-87.507744,41.522739,"801 Main St","","Munster","IN","46321","4066","LAKE" 
"Papa Murphy's Take & Bake Pizza IN060",-86.093964,39.781384,"4401 E 10th St","Ste 1","Indianapolis","IN","46201","2709","MARION" 
"Kroger 361",-84.878815,39.086056,"880 W Eads Pkwy","","Lawrenceburg","IN","47025","1169","DEARBORN" 
"Papa Murphy's Pizza",-86.868713,40.395554,"2324 Teal Rd","","Lafayette","IN","47905","2219","TIPPECANOE" 
"Dollar General 11329",-85.35495,40.178371,"2720 E Memorial Dr","","Muncie","IN","47302","4780","DELAWARE" 
"Papa Murphy's Take'n'Bake Pizza IN066",-87.492737,37.966518,"779 S Green River Rd","","Evansville","IN","47715","4179","VANDERBURGH" 
"Welch's Stop and Shop",-87.471901,41.445969,"11333 W 95th Pl","","Saint John","IN","46373","9469","LAKE" 
"Dewig Bros Packing Co",-87.574936,38.208637,"100 W Maple St","","Haubstadt","IN","47639","8100","GIBSON" 
"Walgreens 07690",-85.381401,39.931538,"100 N Memorial Dr","","New Castle","IN","47362","4915","HENRY" 
"Fairview Store",-85.052567,38.87294,"6930 St Rd 250","","Bennington","IN","47011","","SWITZERLAND" 
"Circle K 36",-86.270218,39.746727,"6302 W Washington St","","Indianapolis","IN","46241","3023","MARION" 
"Aldi 02",-87.472626,37.991177,"6434 Oak Grove Road","","Evansville","IN","47715","","VANDERBURGH" 
"The Sunspot Natural Market 2",-86.912148,40.453449,"500 W Sagamore Parkway","","West Lafayette","IN","47906","","TIPPECANOE" 
"Gas & More, Inc.",-86.262177,40.948193,"710 N State Road 25","","Fulton","IN","46931","","FULTON" 
"Kroger J-804",-86.069351,39.883446,"5810 E 71st St","","Indianapolis","IN","46220","4002","MARION" 
"Hudson Clark",-87.156815,41.598831,"6669 Melton Rd","","Portage","IN","46368","1235","PORTER" 
"Tienda Y Carneceria Los Compadres",-85.781609,38.305038,"616 Providence Way","","Clarksville","IN","47129","1533","CLARK" 
"Riverside One Stop",-87.559593,37.955456,"401 E Riverside Dr","","Evansville","IN","47713","2073","VANDERBURGH" 
"Phillips 66",-86.582405,41.38792,"510 N Starke St","","Hamlet","IN","46532","9706","STARKE" 
"Lucky Mart 2",-86.157227,41.66235,"1408 Lincolnway E","","Mishawaka","IN","46544","2922","ST JOSEPH" 
"Rite Aid 4030",-85.764801,38.325897,"1106 Veterans Pkwy","","Clarksville","IN","47129","2370","CLARK" 
"Casey's General Store 2828",-87.433746,38.872353,"5844 E Freelandville Rd","","Oaktown","IN","47561","8200","KNOX" 
"CVS 8669",-86.041206,39.905289,"7240 E 82nd St","","Indianapolis","IN","46256","1404","MARION" 
"Stockwell Market",-86.77169,40.286133,"6943 Monroe St","","Stockwell","IN","47983","","TIPPECANOE" 
"Casey's General Store 2416",-87.364296,38.042839,"409 E Lincoln Ave","","Chandler","IN","47610","9552","WARRICK" 
"Casey's General Store 2807",-87.207672,39.163288,"715 W Main St","","Jasonville","IN","47438","","GREENE" 
"Strack & Van Til 8798",-87.480721,41.628735,"4725 Indianapolis Blvd","","East Chicago","IN","46312","3327","LAKE" 
"Dollar General 11468",-86.288086,39.764328,"7222 Rockville Rd","","Indianapolis","IN","46214","3939","MARION" 
"Dollar General 11330",-84.932884,41.72879,"300 S Wayne St","","Fremont","IN","46737","2090","STEUBEN" 
"Dollar General 11450",-86.046066,39.837891,"4502 N Shadeland Ave","","Indianapolis","IN","46226","3835","MARION" 
"Quick Stop Marathon",-87.529694,38.676655,"29 S 6th St","","Vincennes","IN","47591","2043","KNOX" 
"Koontz Lake Market",-86.489967,41.416798,"7893 N Highway 23","","Walkerton","IN","46574","","ST JOSEPH" 
"Concannon's Bakery Cafe & Coffee Bar",-85.421913,40.185963,"4801 W Baker Lane","","Muncie","IN","47304","4536","DELAWARE" 
"Family Dollar Store 7921",-86.100655,38.603001,"308 S Main St","","Salem","IN","47167","1322","WASHINGTON" 
"ALDI 03",-87.627769,37.976582,"214 S Rosenberger Ave","","Evansville","IN","47712","6600","VANDERBURGH" 
"DJs Express",-86.874191,41.702103,"1701 Greenwood Ave","","Michigan City","IN","46360","5633","LA PORTE" 
"Sam's Club 4926",-85.955246,39.197769,"2715 Merchant Mile","","Columbus","IN","47201","1573","BARTHOLOMEW" 
"Sam's Club 6301",-85.975014,39.775581,"10859 E Washington St","","Indianapolis","IN","46229","2615","MARION" 
"Sam's Club 6304",-86.260292,39.764912,"5805 Rockville Rd","","Indianapolis","IN","46224","9120","MARION" 
"Sam's Club 6316",-86.213249,39.911724,"3015 W 86th St","","Indianapolis","IN","46268","3602","MARION" 
"Sam's Club 6325",-86.081268,39.617962,"1101 Windhorst Way","","Greenwood","IN","46143","9067","JOHNSON" 
"Sam's Club 6424",-86.105247,40.476673,"1917 E Markland Ave","","Kokomo","IN","46901","6237","HOWARD" 
"Sam's Club 6437",-86.575836,39.145954,"3205 W State Hwy 45","","Bloomington","IN","47403","","MONROE" 
"Sam's Club 8135",-87.415421,39.414791,"4350 S US Highway 41","","Terre Haute","IN","47802","5482","VIGO" 
"Sam's Club 8168",-86.040901,39.926937,"7235 E 96th St","","Indianapolis","IN","46250","3308","MARION" 
"Sam's Club 8169",-86.837883,40.417522,"3819 St Rd 26 E","","Lafayette","IN","47905","","TIPPECANOE" 
"Sam's Club 4851",-85.760025,38.328682,"1301 Veterans Pkwy","","Clarksville","IN","47129","7747","CLARK" 
"Sam's Club 8123",-87.471375,37.981438,"6700 E Virginia St","","Evansville","IN","47715","4034","VANDERBURGH" 
"Sam's Club 8174",-87.297844,41.473434,"3134 E 79th Ave","","Merrillville","IN","46410","5738","LAKE" 
"Sam's Club 6313",-85.162544,41.141129,"6736 Lima Rd","","Fort Wayne","IN","46818","1118","ALLEN" 
"Sam's Club 6315",-86.179634,41.712879,"120 Indian Ridge Blvd","","Mishawaka","IN","46545","9033","ST JOSEPH" 
"Sam's Club 8170",-85.900429,41.622463,"4024 Elkharat Rd Ste 1","","Goshen","IN","46526","","ELKHART" 
"El Gigante Grocery Store",-86.207634,39.885372,"2720 W 71st St","","Indianapolis","IN","46268","2347","MARION" 
"China Lu Market",-87.495262,37.987694,"4604 Vogel Rd","","Evansville","IN","47715","2226","VANDERBURGH" 
"Jamison Meats",-85.216721,41.060177,"5904 W Jefferson Blvd","","Fort Wayne","IN","46804","1677","ALLEN" 
"Circle K 2294",-86.273964,39.779537,"6402 W 10th St","","Indianapolis","IN","46214","3545","MARION" 
"Citgo",-87.355827,41.555195,"3499 Grant St","","Gary","IN","46408","1009","LAKE" 
"Rickers Oil 2",-85.677147,40.142487,"2500 Broadway St","","Anderson","IN","46012","1333","MADISON" 
"Family Dollar Store 1095",-85.779518,38.691536,"395 N Gardner St","","Scottsburg","IN","47170","1309","SCOTT" 
"Phillips 66",-86.187195,41.693043,"3602 Grape Rd","Ste 1","Mishawaka","IN","46545","2711","ST JOSEPH" 
"Econoasis",-85.431961,40.92437,"7462 N US Highway 24 E","","Huntington","IN","46750","9631","HUNTINGTON" 
"Louisville Metro Koa",-85.754631,38.279205,"900 Marriott Dr","","Clarksville","IN","47129","3254","CLARK" 
"Amboy Market LLC",-85.929268,40.600811,"107 S Main St","","Amboy","IN","46911","9600","MIAMI" 
"Sunmart",-87.397392,39.184834,"722 N Walnut St","","Shelburn","IN","47879","1024","SULLIVAN" 
"Dollar General 3874",-85.970047,39.199894,"4130 W Jonathan Moore Pike","","Columbus","IN","47201","8667","BARTHOLOMEW" 
"Dollar General 11495",-87.516014,41.595512,"504 165th St","","Hammond","IN","46324","1309","LAKE" 
"Fresh County Market",-87.360085,41.574062,"2550 Arthur St","","Gary","IN","46404","3531","LAKE" 
"Sunrise Food & Tobacco Inc",-87.40834,41.565159,"2948 Calhoun St","","Gary","IN","46406","3381","LAKE" 
"MARATHON FOOD MART",-85.633453,39.981869,"1806 E State Road 38","","Markleville","IN","46056","9407","MADISON" 
"Circle K 0002",-85.884674,39.217419,"1720 N National Rd","","Columbus","IN","47201","4502","BARTHOLOMEW" 
"Exxon Tiger Mart",-85.014954,39.280296,"8845 E State Road 46","","Sunman","IN","47041","9351","RIPLEY" 
"5 Point Express",-85.126801,41.031654,"702 E Paulding Rd","","Fort Wayne","IN","46816","1226","ALLEN" 
"BURGER DAIRY II",-85.128471,41.08918,"1450 Saint Joseph Blvd","","Fort Wayne","IN","46805","4237","ALLEN" 
"Lassus Handy Dandy 16",-85.160629,41.132648,"5917 Lima Rd","","Fort Wayne","IN","46818","1433","ALLEN" 
"Gallops",-86.93148,41.680637,"1615 W US Highway 20","","Michigan City","IN","46360","6859","LA PORTE" 
"CVS 68",-86.121544,39.41011,"705 W Trafalgar Point Way","","Trafalgar","IN","46181","9702","JOHNSON" 
"CVS 684",-86.122383,39.651073,"7930 Madison Ave","","Indianapolis","IN","46227","5609","MARION" 
"CVS 1078",-86.069595,40.004341,"14835 Sunny Dell Ln","","Noblesville","IN","46062","6984","HAMILTON" 
"CVS 1138",-85.918533,39.956974,"11591 Olio Rd","","Fishers","IN","46037","7613","HAMILTON" 
"CVS 2734",-86.182663,39.663792,"1299 W Southport Rd","","Indianapolis","IN","46217","4174","MARION" 
"CVS 4375",-85.934479,40.06921,"5865 Promenade Blvd","","Noblesville","IN","46060","","HAMILTON" 
"CVS 4635",-86.090172,39.971085,"4721 E 126th St","","Carmel","IN","46033","2407","HAMILTON" 
"CVS 4727",-86.344742,39.949146,"6511 E SR 334","","Zionsville","IN","46077","","BOONE" 
"CVS 4982",-86.002502,39.976368,"13050 Publishers Dr","","Fishers","IN","46038","8826","HAMILTON" 
"CVS 5067",-86.420212,39.696999,"1102 W Main St","","Plainfield","IN","46168","9404","HENDRICKS" 
"CVS 5206",-86.109734,40.042919,"3280 E SR 32","","Westfield","IN","46074","","HAMILTON" 
"CVS 5408",-86.158737,39.54842,"5020 N St Hwy 135","","Bargersville","IN","46106","","JOHNSON" 
"Tanner's Market",-85.839432,38.79501,"201 E Main St","","Crothersville","IN","47229","1509","JACKSON" 
"CVS 6323",-85.017097,41.214451,"13821 Leo Rd","","Leo-Cedarville","IN","46765","","ALLEN" 
"CVS 6460",-85.973907,41.738781,"3600 Cassopolis St","","Elkhart","IN","46514","6770","ELKHART" 
"CVS 6461",-85.965446,41.689548,"551 E Jackson Blvd","","Elkhart","IN","46516","3528","ELKHART" 
"CVS 6479",-85.165573,41.191872,"1703 Carroll Rd","","Fort Wayne","IN","46845","9372","ALLEN" 
"CVS 6487",-86.214752,41.629517,"2101 E Ireland Rd","","South Bend","IN","46614","9156","ST JOSEPH" 
"CVS 6565",-86.280098,39.950157,"1466 W Oak St","","Zionsville","IN","46077","1800","BOONE" 
"CVS 6602",-86.040558,39.955097,"11501 Allisonville Rd","","Fishers","IN","46038","1848","HAMILTON" 
"CVS 6608",-85.895607,39.722328,"5026 W US Highway 52","","New Palestine","IN","46163","9770","HANCOCK" 
"CVS 6840",-85.9254,39.994263,"3085 Tegler Dr","","Noblesville","IN","46060","","HAMILTON" 
"Meijer 153",-85.673515,40.522224,"3820 S Western Ave","","Marion","IN","46953","4901","GRANT" 
"CVS 6998",-85.994003,39.900364,"9805 Geist Crossing Dr","","Indianapolis","IN","46256","4819","MARION" 
"CVS 7188",-85.7061,41.65443,"102 US 20 E","","Middlebury","IN","46540","","ELKHART" 
"CVS 7541",-85.918457,39.896103,"5981 W Broadway","","MC Cordsville","IN","46055","9355","HANCOCK" 
"CVS 7635",-86.003426,41.69944,"1210 N Nappanee St","","Elkhart","IN","46514","1732","ELKHART" 
"CVS 8649",-86.020767,39.956715,"8295 E 116th St","","Fishers","IN","46038","1503","HAMILTON" 
"CVS 8651",-86.914642,40.453369,"512 Sagamore Pkwy W","","West Lafayette","IN","47906","1458","TIPPECANOE" 
"CVS 8652",-86.858139,40.416309,"50 Sagamore Pkwy S","","Lafayette","IN","47904","2822","TIPPECANOE" 
"CVS 8657",-86.878639,40.425556,"1725 Salem St","","Lafayette","IN","47904","2105","TIPPECANOE" 
"CVS 8674",-86.126755,39.958702,"1421 S Range Line Rd","","Carmel","IN","46032","2933","HAMILTON" 
"CVS 8675",-85.959938,39.902164,"11627 Fox Rd","","Indianapolis","IN","46236","8375","MARION" 
"CVS 8678",-86.160492,39.854042,"119 W 56th St","","Indianapolis","IN","46208","1507","MARION" 
"CVS 8679",-87.386116,39.506618,"2021 Ft Harrison Rd","","Terre Haute","IN","47804","","VIGO" 
"CVS 8684",-86.122017,39.876831,"6509 N Keystone Ave","","Indianapolis","IN","46220","1501","MARION" 
"CVS 8685",-86.249634,39.753098,"5208 W Washington St","","Indianapolis","IN","46241","2208","MARION" 
"Casey's General Store 2397",-85.85952,40.276978,"126 W Main St","","Elwood","IN","46036","","MADISON" 
"Grannys Market",-86.69838,41.258671,"3055 S Range Rd","","North Judson","IN","46366","8504","STARKE" 
"CVS 8671",-86.497948,39.162212,"510 S College Mall Rd","","Bloomington","IN","47401","6315","MONROE" 
"North Pointe Marathon",-85.168205,41.177746,"1828 W Dupont Rd","","Fort Wayne","IN","46818","9534","ALLEN" 
"E & S Sales",-85.580177,41.656445,"1265 N State Road 5","","Shipshewana","IN","46565","9163","LAGRANGE" 
"Nature's Nook 1",-84.888794,39.85183,"1601 Chester Blvd","","Richmond","IN","47374","1610","WAYNE" 
"Markle Quick Stop",-85.335892,40.829239,"110 W Logan St","","Markle","IN","46770","9002","WELLS" 
"Stop & Shop",-85.530853,40.877529,"3030 W Park Dr","","Huntington","IN","46750","8956","HUNTINGTON" 
"Economart",-85.471451,40.881943,"1970 E State St","","Huntington","IN","46750","3023","HUNTINGTON" 
"Supermercado Morales 1",-85.883186,38.957924,"416 E Tipton St","","Seymour","IN","47274","3516","JACKSON" 
"Brothers Express Mart",-85.832397,41.601933,"1149 N Main St","","Goshen","IN","46528","2620","ELKHART" 
"Lahodey Meats",-85.394569,40.205212,"1308 N Wheeling Ave","","Muncie","IN","47303","2875","DELAWARE" 
"Stellhorn BP",-85.06192,41.120335,"6230 Stellhorn Rd","","Fort Wayne","IN","46815","5350","ALLEN" 
"SHADELAND SHELL",-86.046463,39.796459,"6998 E 21st St","","Indianapolis","IN","46219","1730","MARION" 
"Walgreens 11625",-86.108696,41.663418,"4620 Lincolnway E","","Mishawaka","IN","46544","4076","ST JOSEPH" 
"The Grocery Shoppe",-86.846336,41.672482,"4535 N Wozniak Rd","","Michigan City","IN","46360","7755","LA PORTE" 
"Liberty Trade Links",-86.101768,39.774708,"3816 E Michigan St","","Indianapolis","IN","46201","3554","MARION" 
"Cleveland Super Stop",-86.216003,41.723568,"17963 Cleveland Rd","","South Bend","IN","46635","1380","ST JOSEPH" 
"Dollar General Store 11539",-87.520546,37.955914,"1555 S Boeke Rd","","Evansville","IN","47714","3123","VANDERBURGH" 
"Fagen Pharmacy 35",-87.27739,41.596512,"5001 US Highway 12","","Gary","IN","46403","2856","LAKE" 
"Berrys Produce & Country Market",-87.583275,38.357559,"1415 W Brumfield Ave","","Princeton","IN","47670","1155","GIBSON" 
"Rainbow Blossom",-85.797691,38.350735,"3003 Charlestown Crossing Way","","New Albany","IN","47150","8301","FLOYD" 
"Marsh Supermarket 8",-86.291252,39.779102,"7405 W 10th St","","Indianapolis","IN","46214","2517","MARION" 
"Stop-N-Go Marathon",-87.511757,38.66465,"2001 Hart St","","Vincennes","IN","47591","6329","KNOX" 
"CENTERTON MARATHON",-86.404068,39.514423,"77 Robb Hill Rd","","Martinsville","IN","46151","8872","MORGAN" 
"29 MARAMART",-86.395065,40.481159,"413 Michigan Rd","","Burlington","IN","46915","1504","CARROLL" 
"31 MaraMart",-86.127823,40.660564,"7233 S US Highway 31","","Bunker Hill","IN","46914","9486","MIAMI" 
"SPIRIT OF FLORA",-86.51313,40.546947,"809 E Columbia St","","Flora","IN","46929","1412","CARROLL" 
"MICHIGANTOWN MARAMART",-86.392975,40.32468,"112 Main St","","Michigantown","IN","46057","9577","CLINTON" 
"Fraberg's IGA, Inc.",-86.479538,39.584801,"490 N Chestnut St","","Monrovia","IN","46157","9549","MORGAN" 
"Shell Food Mart",-84.901878,39.05899,"102 Green Blvd","","Aurora","IN","47001","1490","DEARBORN" 
"Lang Gas & Food Mart",-87.182854,41.597694,"6001 Melton Rd","","Portage","IN","46368","1314","PORTER" 
"Dollar General Store 11543",-85.919792,41.675156,"23672 Old US 20","","Elkhart","IN","46516","5584","ELKHART" 
"Family Dollar Store 7531",-84.988373,38.87273,"1290 Highway 250","","Vevay","IN","47043","2654","SWITZERLAND" 
"Family Dollar Store 1709",-84.878998,41.429653,"349 W Main St","","Butler","IN","46721","1352","DE KALB" 
"Family Dollar Store 1558",-86.720566,41.611607,"701 Lincolnway","","La Porte","IN","46350","3315","LA PORTE" 
"Family Dollar Store 1363",-84.977959,40.439518,"703 N Meridian St","","Portland","IN","47371","1124","JAY" 
"Family Dollar Store 1659",-86.11499,40.505539,"1309 E Morgan St","","Kokomo","IN","46901","2555","HOWARD" 
"Family Dollar Store 2200",-85.484467,40.871864,"1225 S Jefferson St","","Huntington","IN","46750","3824","HUNTINGTON" 
"Family Dollar Store 2401",-86.364082,40.753162,"500 E Market St","","Logansport","IN","46947","3435","CASS" 
"Family Dollar Store 3501",-86.12812,40.452888,"2940 S Washington St","","Kokomo","IN","46902","3515","HOWARD" 
"Family Dollar Store 3691",-85.59552,40.487949,"1023 E Main St","","Gas City","IN","46933","1622","GRANT" 
"Family Dollar Store 6412",-85.668976,38.45105,"991 Market St","","Charlestown","IN","47111","","CLARK" 
"Family Dollar Store 2328",-84.850815,38.954971,"601 High St","","Rising Sun","IN","47040","9449","OHIO" 
"Family Dollar Store 3844",-85.658607,40.531582,"3201 S Adams St","","Marion","IN","46953","4031","GRANT" 
"Family Dollar Store 4857",-84.95562,40.66777,"1106 US Highway 27 N","","Berne","IN","46711","1026","ADAMS" 
"Family Dollar Store 5222",-85.673782,40.546673,"1547 S Western Ave","","Marion","IN","46953","1543","GRANT" 
"Family Dollar Store 5451",-85.645187,40.567253,"907 E Bradford St","","Marion","IN","46952","3064","GRANT" 
"Quick Mart",-87.518799,37.962677,"2508 Washington Ave","","Evansville","IN","47714","2404","VANDERBURGH" 
"CVS 6564",-86.096283,39.87022,"6248 Allisonville Rd","","Indianapolis","IN","46220","4544","MARION" 
"7 Eleven 32574A",-86.158058,41.651241,"1329 E 12th St","","Mishawaka","IN","46544","5732","ST JOSEPH" 
"Fairfield Gasway",-85.144485,41.045368,"4230 Fairfield Ave","","Fort Wayne","IN","46807","2740","ALLEN" 
"Family Dollar Store 3609",-84.895729,39.064617,"511 Green Blvd","","Aurora","IN","47001","","DEARBORN" 
"Family Dollar Store 6276",-86.133774,40.493763,"915 N Washington St","","Kokomo","IN","46901","3309","HOWARD" 
"Family Dollar Store 7480",-85.973083,40.478168,"122 N Hammer St","","Greentown","IN","46936","1015","HOWARD" 
"Family Dollar Store 1008",-85.381577,40.176384,"2100 S Madison St","","Muncie","IN","47302","4061","DELAWARE" 
"Family Dollar Store 1069",-85.13723,41.049988,"102 E Rudisill Blvd","","Fort Wayne","IN","46806","1749","ALLEN" 
"Family Dollar Store 1130",-85.152382,41.067593,"2011 Broadway","","Fort Wayne","IN","46802","3709","ALLEN" 
"Family Dollar Store 1712",-85.217781,40.364246,"1205 S Main St","","Dunkirk","IN","47336","9402","JAY" 
"Family Dollar Store 2950",-85.74556,41.416134,"203 E Pickwick Dr","","Syracuse","IN","46567","1719","KOSCIUSKO" 
"Family Dollar Store 3028",-85.168533,41.024181,"6443 Bluffton Rd","","Fort Wayne","IN","46809","2371","ALLEN" 
"Family Dollar Store 3706",-85.347504,40.179245,"1800 S Burlington Dr","","Muncie","IN","47302","3878","DELAWARE" 
"Family Dollar Store 3850",-86.185005,41.062061,"2320 E State Rd 14","","Rochester","IN","46975","","FULTON" 
"Family Dollar Store 5326",-85.386818,40.2104,"1904 N Walnut St","","Muncie","IN","47303","1972","DELAWARE" 
"Family Dollar Store 6261",-85.09005,41.097698,"3905 E State Blvd","","Fort Wayne","IN","46805","4948","ALLEN" 
"Family Dollar Store 7175",-85.892174,41.07019,"207 S Jefferson St","","Silver Lake","IN","46982","9308","KOSCIUSKO" 
"Family Dollar Store 7860",-86.111198,41.295643,"435 E Center St","","Bourbon","IN","46504","1656","MARSHALL" 
"McFarland Citgo",-86.094955,39.664631,"7020 McFarland Blvd","","Indianapolis","IN","46237","3694","MARION" 
"Walgreens 09751",-84.895813,39.064774,"512 Green Blvd","","Aurora","IN","47001","1502","DEARBORN" 
"Burlington Meats & Catering",-86.391937,40.481647,"215 E 5th St","","Burlington","IN","46915","9742","CARROLL" 
"Mishler Country Meat Market",-85.538269,41.654881,"5680 W 100 N","","Lagrange","IN","46761","8605","LAGRANGE" 
"ALDI 28",-86.504318,38.861008,"2308 W 16th St","","Bedford","IN","47421","3008","LAWRENCE" 
"Walgreens 05115",-85.131355,41.178551,"10412 Coldwater Rd","","Fort Wayne","IN","46845","1233","ALLEN" 
"Walgreens 06673",-85.220985,41.058262,"6202 W Jefferson Blvd","","Fort Wayne","IN","46804","3073","ALLEN" 
"Walgreens 11494",-85.267059,41.452282,"124 E North St","","Kendallville","IN","46755","1124","NOBLE" 
"Walgreens 11945",-85.252396,41.135998,"11932 State Rd","","Ft Wayne","IN","46818","","ALLEN" 
"Jackson St. Marathon",-86.865379,39.647511,"405 N Jackson St","","Greencastle","IN","46135","1030","PUTNAM" 
"Family Dollar Store 7917",-85.095978,41.032104,"5827 Hessen Cassel Rd","","Fort Wayne","IN","46816","3801","ALLEN" 
"Family Dollar Store 1200",-86.249908,41.65686,"1633 S Michigan St","","South Bend","IN","46613","2217","ST JOSEPH" 
"Family Dollar Store 1437",-86.295845,41.671967,"3311 W Western Ave","","South Bend","IN","46619","3060","ST JOSEPH" 
"Family Dollar Store 3138",-86.878464,41.685249,"1007 E US Highway 20","","Michigan City","IN","46360","7467","LA PORTE" 
"Family Dollar Store 4931",-86.197823,41.694756,"3601 Edison Rd","","South Bend","IN","46615","","ST JOSEPH" 
"Family Dollar Store 5308",-86.283722,41.688313,"2401 Lincolnway W","","South Bend","IN","46628","1915","ST JOSEPH" 
"Family Dollar Store 6096",-86.109344,41.665051,"309 N Bittersweet Rd","","Mishawaka","IN","46544","4220","ST JOSEPH" 
"Family Dollar Store 7407",-86.314713,41.671772,"4850 Western Ave W","","South Bend","IN","46619","","ST JOSEPH" 
"Family Dollar Store 7749",-86.244225,41.75779,"50660 Indiana State Route 933","","South Bend","IN","46637","2054","ST JOSEPH" 
"Family Dollar Store 7810",-86.175323,41.659115,"417 E 4th St","","Mishawaka","IN","46544","2234","ST JOSEPH" 
"Family Dollar Store 1120",-85.359077,39.931168,"2106 Broad St","","New Castle","IN","47362","3535","HENRY" 
"Family Dollar Store 1219",-85.671516,40.274021,"1216 N Park Ave","","Alexandria","IN","46001","1263","MADISON" 
"Family Dollar Store 1468",-85.676758,40.102116,"205 E 14th St","","Anderson","IN","46016","1803","MADISON" 
"Family Dollar Store 1548",-84.890488,39.82288,"416 S 9th St","","Richmond","IN","47374","6204","WAYNE" 
"Family Dollar Store 1605",-84.81282,40.196415,"508 W Chestnut St","","Union City","IN","47390","1308","RANDOLPH" 
"Family Dollar Store 3499",-84.964592,40.172073,"918 E Washington St","","Winchester","IN","47394","","RANDOLPH" 
"Dollar General Store 11425",-85.69899,41.334114,"6772 N State Route 13","","North Webster","IN","46555","","KOSCIUSKO" 
"Michiana Mini Mart",-86.244225,41.75779,"50505 Indiana State Route 933","","South Bend","IN","46637","2052","ST JOSEPH" 
"Downtown Shell",-85.44471,39.607475,"104 S Main St","","Rushville","IN","46173","1929","RUSH" 
"Main Street Shell 203",-85.169472,39.812565,"2 E Main St","","Cambridge City","IN","47327","1216","WAYNE" 
"Whitewater Shell 210",-85.129417,39.638817,"100 Vine St","","Connersville","IN","47331","2666","FAYETTE" 
"Target 0139",-85.840904,38.306156,"2209 State St","","New Albany","IN","47150","4955","FLOYD" 
"Target 0731",-87.471237,41.523895,"10451 Indianapolis Blvd","","Highland","IN","46322","3511","LAKE" 
"Target 0881",-86.280869,39.823212,"6925 W 38th St","","Indianapolis","IN","46254","3905","MARION" 
"Fisher Meats, Inc.",-85.386879,40.21521,"2800 N Walnut St","","Muncie","IN","47303","1961","DELAWARE" 
"7-11 32571",-85.867424,41.601868,"2220 Elkhart Rd","","Goshen","IN","46526","1117","ELKHART" 
"Family Dollar Store 7021",-85.586334,41.45261,"1352 S Lincoln Way S","","Ligonier","IN","46767","","NOBLE" 
"Family Dollar Store 7335",-85.967049,41.659412,"117 W Hively Ave","","Elkhart","IN","46517","2114","ELKHART" 
"Family Dollar Store 7590",-85.94754,41.680645,"909 Goshen Ave","","Elkhart","IN","46516","4802","ELKHART" 
"Family Dollar Store 7678",-85.318405,41.228855,"340 S Main St","","Churubusco","IN","46723","2216","WHITLEY" 
"Family Dollar Store 887",-87.581139,37.984867,"1200 W Columbia St","","Evansville","IN","47710","","VANDERBURGH" 
"Family Dollar Store 1183",-86.46949,38.547539,"405 SW 1st St","","Paoli","IN","47454","1103","ORANGE" 
"Family Dollar Store 1254",-86.914108,38.672417,"99 Pine St","","Loogootee","IN","47553","2413","MARTIN" 
"Family Dollar 1549",-87.538857,37.954498,"1617 Lodge Ave","","Evansville","IN","47714","3530","VANDERBURGH" 
"Family Dollar Store 2192",-87.178741,38.652637,"305 E National Hwy","","Washington","IN","47501","4040","DAVIESS" 
"Family Dollar Store 2631",-87.558067,37.999622,"424 E Diamond Ave","","Evansville","IN","47711","3714","VANDERBURGH" 
"Family Dollar Store 4006",-87.049568,37.890343,"610 N 5th St","","Rockport","IN","47635","1102","SPENCER" 
"Family Dollar Store 4438",-87.578239,38.355389,"1023 W Broadway St","","Princeton","IN","47670","1133","GIBSON" 
"Family Dollar Store 4646",-87.557922,37.970097,"501 Lincoln Ave","","Evansville","IN","47713","1733","VANDERBURGH" 
"Family Dollar Store 4783",-87.527191,37.991734,"2060 E Morgan Ave","","Evansville","IN","47711","4356","VANDERBURGH" 
"Family Dollar Store 5245",-87.511185,37.957878,"1320 Vann Ave","","Evansville","IN","47714","3361","VANDERBURGH" 
"Family Dollar Store 5585",-87.529297,37.977802,"1 N Weinbach Ave","Ste 1","Evansville","IN","47711","6090","VANDERBURGH" 
"Family Dollar Store 5660",-86.768356,37.963066,"1510 9th St","","Tell City","IN","47586","1343","PERRY" 
"Family Dollar Store 1435",-87.249741,40.292873,"108 W Jackson St","","Attica","IN","47918","1334","FOUNTAIN" 
"Family Dollar Store 1097",-85.486694,39.336597,"230 W Main St","","Greensburg","IN","47240","1603","DECATUR" 
"Family Dollar Store 1143",-85.813713,38.300034,"1201 Vincennes St","","New Albany","IN","47150","2512","FLOYD" 
"Family Dollar Store 1533",-85.255302,39.064533,"821 S Adams St","","Versailles","IN","47042","9422","RIPLEY" 
"Family Dollar Store 2128",-85.728905,38.290985,"1025 Youngstown Shopping Ctr","","Jeffersonville","IN","47130","4253","CLARK" 
"Family Dollar 8098",-85.769348,38.379284,"7414 Hwy 311","","Sellersburg","IN","47172","","CLARK" 
"Uselman Packing Co",-87.403572,39.680622,"75 E 4th St","","Clinton","IN","47842","7040","VERMILLION" 
"Casey's General Store 2823",-86.802376,39.849361,"2 S Indiana St","","Roachdale","IN","46172","","PUTNAM" 
"Family Dollar 1014",-86.425758,39.427834,"211 E Morgan St","","Martinsville","IN","46151","1546","MORGAN" 
"Family Dollar 1135",-86.003197,41.673996,"1530 S Nappanee St","","Elkhart","IN","46516","1709","ELKHART" 
"Family Dollar 1266",-85.971863,41.703251,"1522 Cassopolis St","","Elkhart","IN","46514","3127","ELKHART" 
"Family Dollar 1290",-86.620659,41.287689,"1000 S Heaton St","","Knox","IN","46534","2306","STARKE" 
"Family Dollar 1530",-86.515495,40.279697,"364 W Walnut St","","Frankfort","IN","46041","2367","CLINTON" 
"Family Dollar 1557",-87.156143,40.930149,"434 S College Ave","","Rensselaer","IN","47978","3005","JASPER" 
"Family Dollar 1600",-87.251419,41.572548,"2626 Central Ave","","Lake Station","IN","46405","2126","LAKE" 
"Family Dollar 1831",-87.142792,41.550304,"390 W US Hwy 6","","Valparaiso","IN","46383","","PORTER" 
"Family Dollar 2042",-87.336121,41.520222,"5400 Broadway","","Merrillville","IN","46410","1648","LAKE" 
